"ch_name"|"ch_type"|"ch_data"|"num_lat"|"num_long"
"8 Homeward"|"Crater"|"Crater visible in the iconic Earthrisea colour photograph, taken aboard Apollo 8 by W A Anders on December 24, 1968, symbolizes the safe return to Earth of Apollo 8 The crater was previously designated Ganskiy (Hansky) M"|-12.0249|97.0932
"Abbe"|"Crater"|"Ernst Karl; German optician, physicist, astronomer (1840-1905)"|-57.5755|174.775
"Abbe H"|"Satellite Feature"|"Ernst Karl; German optician, physicist, astronomer (1840-1905)"|-58.4449|177.584
"Abbe K"|"Satellite Feature"|"Ernst Karl; German optician, physicist, astronomer (1840-1905)"|-59.8159|176.858
"Abbe M"|"Satellite Feature"|"Ernst Karl; German optician, physicist, astronomer (1840-1905)"|-61.7462|175.239
"Abbot"|"Crater"|"Charles Greeley; American astrophysicist (1872-1973)"|5.5562|54.7431
"Abel"|"Crater"|"Niels Henrik; Norwegian mathematician (1802-1829)"|-34.6257|85.7762
"Abel A"|"Satellite Feature"|"Niels Henrik; Norwegian mathematician (1802-1829)"|-36.3141|85.7973
"Abel B"|"Satellite Feature"|"Niels Henrik; Norwegian mathematician (1802-1829)"|-36.7202|82.5954
"Abel C"|"Satellite Feature"|"Niels Henrik; Norwegian mathematician (1802-1829)"|-36.1273|81.4094
"Abel D"|"Satellite Feature"|"Niels Henrik; Norwegian mathematician (1802-1829)"|-37.6716|86.4543
"Abel E"|"Satellite Feature"|"Niels Henrik; Norwegian mathematician (1802-1829)"|-37.5354|84.4354
"Abel J"|"Satellite Feature"|"Niels Henrik; Norwegian mathematician (1802-1829)"|-36.2027|79.8714
"Abel K"|"Satellite Feature"|"Niels Henrik; Norwegian mathematician (1802-1829)"|-34.6915|77.4576
"Abel L"|"Satellite Feature"|"Niels Henrik; Norwegian mathematician (1802-1829)"|-34.5525|82.3946
"Abel M"|"Satellite Feature"|"Niels Henrik; Norwegian mathematician (1802-1829)"|-32.3763|83.5218
"Abenezra"|"Crater"|"Abraham ben Meir Ibn Ezra; Spanish mathematician, astronomer (1092-1164/1167)"|-20.9936|11.8907
"Abenezra A"|"Satellite Feature"|"Abraham ben Meir Ibn Ezra; Spanish mathematician, astronomer (1092-1164/1167)"|-22.7915|10.4423
"Abenezra B"|"Satellite Feature"|"Abraham ben Meir Ibn Ezra; Spanish mathematician, astronomer (1092-1164/1167)"|-20.8178|10.0625
"Abenezra C"|"Satellite Feature"|"Abraham ben Meir Ibn Ezra; Spanish mathematician, astronomer (1092-1164/1167)"|-21.3666|11.0906
"Abenezra D"|"Satellite Feature"|"Abraham ben Meir Ibn Ezra; Spanish mathematician, astronomer (1092-1164/1167)"|-21.7587|9.6489
"Abenezra E"|"Satellite Feature"|"Abraham ben Meir Ibn Ezra; Spanish mathematician, astronomer (1092-1164/1167)"|-21.4636|9.4044
"Abenezra F"|"Satellite Feature"|"Abraham ben Meir Ibn Ezra; Spanish mathematician, astronomer (1092-1164/1167)"|-21.58|10.3365
"Abenezra G"|"Satellite Feature"|"Abraham ben Meir Ibn Ezra; Spanish mathematician, astronomer (1092-1164/1167)"|-20.5327|11.0016
"Abenezra H"|"Satellite Feature"|"Abraham ben Meir Ibn Ezra; Spanish mathematician, astronomer (1092-1164/1167)"|-21.0865|12.711
"Abenezra J"|"Satellite Feature"|"Abraham ben Meir Ibn Ezra; Spanish mathematician, astronomer (1092-1164/1167)"|-19.9173|10.6863
"Abenezra P"|"Satellite Feature"|"Abraham ben Meir Ibn Ezra; Spanish mathematician, astronomer (1092-1164/1167)"|-20.0162|9.8496
"Abetti"|"Crater"|"Antonio; Italian astronomer (1846-1928); Giorgio; Italian astronomer (1882-1982)"|20.1127|27.8157
"Abul Wafa"|"Crater"|"Abu al-Wafa al-Buzajani; Persian mathematician, astronomer (940-998)"|0.9626|116.631
"Abul Wafa A"|"Satellite Feature"|"Abu al-Wafa al-Buzajani; Persian mathematician, astronomer (940-998)"|1.3971|116.859
"Abul Wafa Q"|"Satellite Feature"|"Abu al-Wafa al-Buzajani; Persian mathematician, astronomer (940-998)"|0.1437|115.884
"Abulfeda"|"Crater"|"Ismail Ibn Abu al-Fida; Syrian geographer (1273-1331)"|-13.8651|13.9103
"Abulfeda A"|"Satellite Feature"|"Ismail Ibn Abu al-Fida; Syrian geographer (1273-1331)"|-16.4303|10.7533
"Abulfeda B"|"Satellite Feature"|"Ismail Ibn Abu al-Fida; Syrian geographer (1273-1331)"|-14.5072|16.3705
"Abulfeda BA"|"Satellite Feature"|"Ismail Ibn Abu al-Fida; Syrian geographer (1273-1331)"|-14.6917|16.7959
"Abulfeda C"|"Satellite Feature"|"Ismail Ibn Abu al-Fida; Syrian geographer (1273-1331)"|-12.793|10.829
"Abulfeda D"|"Satellite Feature"|"Ismail Ibn Abu al-Fida; Syrian geographer (1273-1331)"|-13.2474|9.4612
"Abulfeda E"|"Satellite Feature"|"Ismail Ibn Abu al-Fida; Syrian geographer (1273-1331)"|-16.7613|10.1362
"Abulfeda F"|"Satellite Feature"|"Ismail Ibn Abu al-Fida; Syrian geographer (1273-1331)"|-16.1862|13.0659
"Abulfeda G"|"Satellite Feature"|"Ismail Ibn Abu al-Fida; Syrian geographer (1273-1331)"|-13.1021|8.9367
"Abulfeda H"|"Satellite Feature"|"Ismail Ibn Abu al-Fida; Syrian geographer (1273-1331)"|-13.8351|9.5571
"Abulfeda J"|"Satellite Feature"|"Ismail Ibn Abu al-Fida; Syrian geographer (1273-1331)"|-15.4862|10.0327
"Abulfeda K"|"Satellite Feature"|"Ismail Ibn Abu al-Fida; Syrian geographer (1273-1331)"|-14.9203|10.58
"Abulfeda L"|"Satellite Feature"|"Ismail Ibn Abu al-Fida; Syrian geographer (1273-1331)"|-14.0869|10.6717
"Abulfeda M"|"Satellite Feature"|"Ismail Ibn Abu al-Fida; Syrian geographer (1273-1331)"|-16.235|12.0623
"Abulfeda N"|"Satellite Feature"|"Ismail Ibn Abu al-Fida; Syrian geographer (1273-1331)"|-15.144|12.2004
"Abulfeda O"|"Satellite Feature"|"Ismail Ibn Abu al-Fida; Syrian geographer (1273-1331)"|-15.4682|11.1584
"Abulfeda P"|"Satellite Feature"|"Ismail Ibn Abu al-Fida; Syrian geographer (1273-1331)"|-15.4973|11.5448
"Abulfeda Q"|"Satellite Feature"|"Ismail Ibn Abu al-Fida; Syrian geographer (1273-1331)"|-12.8592|12.224
"Abulfeda R"|"Satellite Feature"|"Ismail Ibn Abu al-Fida; Syrian geographer (1273-1331)"|-12.7855|12.9678
"Abulfeda S"|"Satellite Feature"|"Ismail Ibn Abu al-Fida; Syrian geographer (1273-1331)"|-12.2841|13.2979
"Abulfeda T"|"Satellite Feature"|"Ismail Ibn Abu al-Fida; Syrian geographer (1273-1331)"|-14.8582|13.7138
"Abulfeda U"|"Satellite Feature"|"Ismail Ibn Abu al-Fida; Syrian geographer (1273-1331)"|-12.9719|13.7953
"Abulfeda W"|"Satellite Feature"|"Ismail Ibn Abu al-Fida; Syrian geographer (1273-1331)"|-12.5516|13.8472
"Abulfeda X"|"Satellite Feature"|"Ismail Ibn Abu al-Fida; Syrian geographer (1273-1331)"|-15.0147|13.9942
"Abulfeda Y"|"Satellite Feature"|"Ismail Ibn Abu al-Fida; Syrian geographer (1273-1331)"|-12.7567|14.0525
"Abulfeda Z"|"Satellite Feature"|"Ismail Ibn Abu al-Fida; Syrian geographer (1273-1331)"|-14.7296|15.1776
"Acosta"|"Crater"|"Cristobal; Portuguese doctor, natural historian (1515-1580)"|-5.6453|60.1395
"Adams"|"Crater"|"John Couch; British astronomer (1819-1892); Charles Hitchcock; American astronomer (1868-1951); Walter Sydney; American astronomer (1876-1956)"|-31.8916|68.3869
"Adams B"|"Satellite Feature"|"John Couch; British astronomer (1819-1892); Charles Hitchcock; American astronomer (1868-1951); Walter Sydney; American astronomer (1876-1956)"|-31.5429|65.7007
"Adams C"|"Satellite Feature"|"John Couch; British astronomer (1819-1892); Charles Hitchcock; American astronomer (1868-1951); Walter Sydney; American astronomer (1876-1956)"|-32.3515|65.5392
"Adams D"|"Satellite Feature"|"John Couch; British astronomer (1819-1892); Charles Hitchcock; American astronomer (1868-1951); Walter Sydney; American astronomer (1876-1956)"|-32.4074|71.4504
"Adams M"|"Satellite Feature"|"John Couch; British astronomer (1819-1892); Charles Hitchcock; American astronomer (1868-1951); Walter Sydney; American astronomer (1876-1956)"|-34.733|69.3325
"Adams P"|"Satellite Feature"|"John Couch; British astronomer (1819-1892); Charles Hitchcock; American astronomer (1868-1951); Walter Sydney; American astronomer (1876-1956)"|-35.1452|70.9095
"Aepinus"|"Crater"|"Franz Maria Ulrich Theodor Hoch; German-Russian astronomer (1724-1802)"|87.9582|-109.687
"Agatharchides"|"Crater"|"Agatharchides of Cnidos; Greek geographer (c 116 BC)"|-19.8537|-31.1146
"Agatharchides A"|"Satellite Feature"|"Agatharchides of Cnidos; Greek geographer (c 116 BC)"|-23.2735|-28.4611
"Agatharchides B"|"Satellite Feature"|"Agatharchides of Cnidos; Greek geographer (c 116 BC)"|-21.52|-31.7099
"Agatharchides C"|"Satellite Feature"|"Agatharchides of Cnidos; Greek geographer (c 116 BC)"|-22.0559|-32.9436
"Agatharchides E"|"Satellite Feature"|"Agatharchides of Cnidos; Greek geographer (c 116 BC)"|-20.7447|-33.1872
"Agatharchides F"|"Satellite Feature"|"Agatharchides of Cnidos; Greek geographer (c 116 BC)"|-20.2576|-31.8574
"Agatharchides G"|"Satellite Feature"|"Agatharchides of Cnidos; Greek geographer (c 116 BC)"|-20.1716|-26.8427
"Agatharchides H"|"Satellite Feature"|"Agatharchides of Cnidos; Greek geographer (c 116 BC)"|-20.4098|-33.9455
"Agatharchides J"|"Satellite Feature"|"Agatharchides of Cnidos; Greek geographer (c 116 BC)"|-21.622|-32.6059
"Agatharchides K"|"Satellite Feature"|"Agatharchides of Cnidos; Greek geographer (c 116 BC)"|-21.0765|-27.5348
"Agatharchides L"|"Satellite Feature"|"Agatharchides of Cnidos; Greek geographer (c 116 BC)"|-21.1224|-26.7895
"Agatharchides N"|"Satellite Feature"|"Agatharchides of Cnidos; Greek geographer (c 116 BC)"|-21.0917|-29.7164
"Agatharchides O"|"Satellite Feature"|"Agatharchides of Cnidos; Greek geographer (c 116 BC)"|-19.2378|-26.7122
"Agatharchides P"|"Satellite Feature"|"Agatharchides of Cnidos; Greek geographer (c 116 BC)"|-20.3002|-28.7732
"Agatharchides R"|"Satellite Feature"|"Agatharchides of Cnidos; Greek geographer (c 116 BC)"|-18.3601|-30.8454
"Agatharchides S"|"Satellite Feature"|"Agatharchides of Cnidos; Greek geographer (c 116 BC)"|-17.7527|-30.5889
"Agatharchides T"|"Satellite Feature"|"Agatharchides of Cnidos; Greek geographer (c 116 BC)"|-18.3245|-27.7977
"Agrippa"|"Crater"|"Greek astronomer (unkn-fl AD 92)"|4.0964|10.4741
"Agrippa B"|"Satellite Feature"|"Greek astronomer (unkn-fl AD 92)"|6.1962|9.4567
"Agrippa D"|"Satellite Feature"|"Greek astronomer (unkn-fl AD 92)"|3.7675|6.7151
"Agrippa E"|"Satellite Feature"|"Greek astronomer (unkn-fl AD 92)"|5.1611|8.4429
"Agrippa F"|"Satellite Feature"|"Greek astronomer (unkn-fl AD 92)"|4.3012|11.3697
"Agrippa G"|"Satellite Feature"|"Greek astronomer (unkn-fl AD 92)"|3.9103|6.1592
"Agrippa H"|"Satellite Feature"|"Greek astronomer (unkn-fl AD 92)"|4.7501|10.6976
"Agrippa S"|"Satellite Feature"|"Greek astronomer (unkn-fl AD 92)"|5.2788|8.8926
"Airy"|"Crater"|"George Biddell; British astronomer (1801-1892)"|-18.1416|5.6149
"Airy A"|"Satellite Feature"|"George Biddell; British astronomer (1801-1892)"|-17.0451|7.6398
"Airy B"|"Satellite Feature"|"George Biddell; British astronomer (1801-1892)"|-17.669|8.4563
"Airy C"|"Satellite Feature"|"George Biddell; British astronomer (1801-1892)"|-19.2472|4.7736
"Airy D"|"Satellite Feature"|"George Biddell; British astronomer (1801-1892)"|-18.134|8.337
"Airy E"|"Satellite Feature"|"George Biddell; British astronomer (1801-1892)"|-20.7513|7.548
"Airy F"|"Satellite Feature"|"George Biddell; British astronomer (1801-1892)"|-18.2045|7.2628
"Airy G"|"Satellite Feature"|"George Biddell; British astronomer (1801-1892)"|-18.6971|6.9551
"Airy H"|"Satellite Feature"|"George Biddell; British astronomer (1801-1892)"|-18.7352|5.6886
"Airy J"|"Satellite Feature"|"George Biddell; British astronomer (1801-1892)"|-19.0524|6.085
"Airy L"|"Satellite Feature"|"George Biddell; British astronomer (1801-1892)"|-20.4701|7.5401
"Airy M"|"Satellite Feature"|"George Biddell; British astronomer (1801-1892)"|-19.1488|7.5632
"Airy N"|"Satellite Feature"|"George Biddell; British astronomer (1801-1892)"|-17.8537|8.175
"Airy O"|"Satellite Feature"|"George Biddell; British astronomer (1801-1892)"|-16.7521|8.3524
"Airy P"|"Satellite Feature"|"George Biddell; British astronomer (1801-1892)"|-15.8837|8.3491
"Airy R"|"Satellite Feature"|"George Biddell; British astronomer (1801-1892)"|-19.6017|8.7791
"Airy S"|"Satellite Feature"|"George Biddell; British astronomer (1801-1892)"|-17.2765|9.3898
"Airy T"|"Satellite Feature"|"George Biddell; British astronomer (1801-1892)"|-19.2742|9.383
"Airy V"|"Satellite Feature"|"George Biddell; British astronomer (1801-1892)"|-17.4979|9.1365
"Airy X"|"Satellite Feature"|"George Biddell; British astronomer (1801-1892)"|-18.9472|10.1216
"Aitken"|"Crater"|"Robert Grant; American astronomer (1864-1951)"|-16.443|172.958
"Aitken A"|"Satellite Feature"|"Robert Grant; American astronomer (1864-1951)"|-13.8668|173.464
"Aitken C"|"Satellite Feature"|"Robert Grant; American astronomer (1864-1951)"|-13.7601|175.575
"Aitken G"|"Satellite Feature"|"Robert Grant; American astronomer (1864-1951)"|-16.7098|173.994
"Aitken N"|"Satellite Feature"|"Robert Grant; American astronomer (1864-1951)"|-17.6311|172.739
"Aitken Y"|"Satellite Feature"|"Robert Grant; American astronomer (1864-1951)"|-11.9296|172.921
"Aitken Z"|"Satellite Feature"|"Robert Grant; American astronomer (1864-1951)"|-14.8904|173.206
"Akis"|"Crater"|"Greek female name"|20.0109|-31.7594
"Al Bakri"|"Crater"|"Abu Ubayd Abdallah Ibn abd al-Aziz Ibn Muhammad; Spanish-Arab geographer (1010-1094)"|14.3354|20.2451
"Al Biruni"|"Crater"|"Abu ar-Rayhan Muhammad ibn Ahmad al-Biruni; Persian astronomer, mathematician, geographer (973-1048)"|18.0713|92.6162
"Al Biruni C"|"Satellite Feature"|"Abu ar-Rayhan Muhammad ibn Ahmad al-Biruni; Persian astronomer, mathematician, geographer (973-1048)"|18.4183|93.0571
"Al Khwarizmi"|"Crater"|"Abu Ja'far Muhammad Ibn Musa; Iraqi mathematician (unkn-after 847)"|7.0219|107.006
"Al Khwarizmi B"|"Satellite Feature"|"Abu Ja'far Muhammad Ibn Musa; Iraqi mathematician (unkn-after 847)"|9.092|107.917
"Al Khwarizmi G"|"Satellite Feature"|"Abu Ja'far Muhammad Ibn Musa; Iraqi mathematician (unkn-after 847)"|6.7559|107.346
"Al Khwarizmi H"|"Satellite Feature"|"Abu Ja'far Muhammad Ibn Musa; Iraqi mathematician (unkn-after 847)"|5.8476|109.774
"Al Khwarizmi J"|"Satellite Feature"|"Abu Ja'far Muhammad Ibn Musa; Iraqi mathematician (unkn-after 847)"|6.1894|108.144
"Al Khwarizmi K"|"Satellite Feature"|"Abu Ja'far Muhammad Ibn Musa; Iraqi mathematician (unkn-after 847)"|4.4986|108.151
"Al Khwarizmi L"|"Satellite Feature"|"Abu Ja'far Muhammad Ibn Musa; Iraqi mathematician (unkn-after 847)"|3.767|107.891
"Al Khwarizmi M"|"Satellite Feature"|"Abu Ja'far Muhammad Ibn Musa; Iraqi mathematician (unkn-after 847)"|3.0532|107.44
"Al Khwarizmi T"|"Satellite Feature"|"Abu Ja'far Muhammad Ibn Musa; Iraqi mathematician (unkn-after 847)"|7.0607|104.965
"Al Marrakushi"|"Crater"|"Abu `Ali al-Hasan Ibn `Ali al-Marrakushi; Moroccan astronomer, mathematician (fl c AD 1281/1282)"|-10.4467|55.7703
"Alan"|"Crater"|"Irish male name"|-10.9331|-6.1709
"Albategnius"|"Crater"|"Muhammed Ben Geber Al-Battani; Arab astronomer, mathematician (c 858-929)"|-11.24|4.0092
"Albategnius A"|"Satellite Feature"|"Muhammed Ben Geber Al-Battani; Arab astronomer, mathematician (c 858-929)"|-9.342|3.0306
"Albategnius B"|"Satellite Feature"|"Muhammed Ben Geber Al-Battani; Arab astronomer, mathematician (c 858-929)"|-10.0733|4.0289
"Albategnius C"|"Satellite Feature"|"Muhammed Ben Geber Al-Battani; Arab astronomer, mathematician (c 858-929)"|-10.3313|3.7092
"Albategnius D"|"Satellite Feature"|"Muhammed Ben Geber Al-Battani; Arab astronomer, mathematician (c 858-929)"|-11.3565|7.1423
"Albategnius E"|"Satellite Feature"|"Muhammed Ben Geber Al-Battani; Arab astronomer, mathematician (c 858-929)"|-12.9456|6.3827
"Albategnius G"|"Satellite Feature"|"Muhammed Ben Geber Al-Battani; Arab astronomer, mathematician (c 858-929)"|-9.4629|1.8853
"Albategnius H"|"Satellite Feature"|"Muhammed Ben Geber Al-Battani; Arab astronomer, mathematician (c 858-929)"|-9.6634|5.1601
"Albategnius J"|"Satellite Feature"|"Muhammed Ben Geber Al-Battani; Arab astronomer, mathematician (c 858-929)"|-11.141|6.1916
"Albategnius K"|"Satellite Feature"|"Muhammed Ben Geber Al-Battani; Arab astronomer, mathematician (c 858-929)"|-9.9021|1.9976
"Albategnius L"|"Satellite Feature"|"Muhammed Ben Geber Al-Battani; Arab astronomer, mathematician (c 858-929)"|-12.0825|6.3124
"Albategnius M"|"Satellite Feature"|"Muhammed Ben Geber Al-Battani; Arab astronomer, mathematician (c 858-929)"|-8.9156|4.1579
"Albategnius N"|"Satellite Feature"|"Muhammed Ben Geber Al-Battani; Arab astronomer, mathematician (c 858-929)"|-9.894|4.536
"Albategnius O"|"Satellite Feature"|"Muhammed Ben Geber Al-Battani; Arab astronomer, mathematician (c 858-929)"|-13.62|4.4256
"Albategnius P"|"Satellite Feature"|"Muhammed Ben Geber Al-Battani; Arab astronomer, mathematician (c 858-929)"|-13.0161|4.4869
"Albategnius S"|"Satellite Feature"|"Muhammed Ben Geber Al-Battani; Arab astronomer, mathematician (c 858-929)"|-13.347|6.0491
"Albategnius T"|"Satellite Feature"|"Muhammed Ben Geber Al-Battani; Arab astronomer, mathematician (c 858-929)"|-12.6614|6.0638
"Albert"|"Crater"|"Male name of German origin (Lunokhod-1 landing site feature)"|38.3167|-35.0123
"Alden"|"Crater"|"Harold Lee; American astronomer (1890-1964)"|-23.5084|111.114
"Alden B"|"Satellite Feature"|"Harold Lee; American astronomer (1890-1964)"|-20.599|113.109
"Alden C"|"Satellite Feature"|"Harold Lee; American astronomer (1890-1964)"|-22.6866|111.743
"Alden E"|"Satellite Feature"|"Harold Lee; American astronomer (1890-1964)"|-23.4178|112.805
"Alden V"|"Satellite Feature"|"Harold Lee; American astronomer (1890-1964)"|-22.7048|110.464
"Alder"|"Crater"|"Kurt; German organic chemist; Nobel laureate (1902-1958)"|-48.6255|-177.884
"Alder E"|"Satellite Feature"|"Kurt; German organic chemist; Nobel laureate (1902-1958)"|-47.9704|-173.504
"Aldrin"|"Crater"|"Edwin Eugene, Jr (Buzz); American astronaut (1930-Live)"|1.4059|22.0899
"Alekhin"|"Crater"|"Nikolaj Pavlovich; Soviet rocket designer, engineer (1913-1964)"|-67.944|-131.852
"Alekhin E"|"Satellite Feature"|"Nikolaj Pavlovich; Soviet rocket designer, engineer (1913-1964)"|-66.9622|-124.582
"Alexander"|"Crater"|"Alexander the Great, of Macedon; Greek geographer (356-323 BC)"|40.2515|13.6932
"Alexander A"|"Satellite Feature"|"Alexander the Great, of Macedon; Greek geographer (356-323 BC)"|40.7808|14.936
"Alexander B"|"Satellite Feature"|"Alexander the Great, of Macedon; Greek geographer (356-323 BC)"|40.2756|15.1406
"Alexander C"|"Satellite Feature"|"Alexander the Great, of Macedon; Greek geographer (356-323 BC)"|38.5245|14.9506
"Alexander K"|"Satellite Feature"|"Alexander the Great, of Macedon; Greek geographer (356-323 BC)"|40.5214|19.3497
"Alfraganus"|"Crater"|"Al-Fargani, Abu'l-'Abbas Ahmad Ibn Muhammad Ibn Kathir; Persian astronomer (unkn-c 840)"|-5.4217|18.9706
"Alfraganus A"|"Satellite Feature"|"Al-Fargani, Abu'l-'Abbas Ahmad Ibn Muhammad Ibn Kathir; Persian astronomer (unkn-c 840)"|-3.046|20.324
"Alfraganus C"|"Satellite Feature"|"Al-Fargani, Abu'l-'Abbas Ahmad Ibn Muhammad Ibn Kathir; Persian astronomer (unkn-c 840)"|-6.127|18.0914
"Alfraganus D"|"Satellite Feature"|"Al-Fargani, Abu'l-'Abbas Ahmad Ibn Muhammad Ibn Kathir; Persian astronomer (unkn-c 840)"|-4.0495|20.1394
"Alfraganus E"|"Satellite Feature"|"Al-Fargani, Abu'l-'Abbas Ahmad Ibn Muhammad Ibn Kathir; Persian astronomer (unkn-c 840)"|-4.6165|19.0047
"Alfraganus F"|"Satellite Feature"|"Al-Fargani, Abu'l-'Abbas Ahmad Ibn Muhammad Ibn Kathir; Persian astronomer (unkn-c 840)"|-3.5364|20.8417
"Alfraganus G"|"Satellite Feature"|"Al-Fargani, Abu'l-'Abbas Ahmad Ibn Muhammad Ibn Kathir; Persian astronomer (unkn-c 840)"|-2.6721|21.2325
"Alfraganus H"|"Satellite Feature"|"Al-Fargani, Abu'l-'Abbas Ahmad Ibn Muhammad Ibn Kathir; Persian astronomer (unkn-c 840)"|-4.3638|19.1601
"Alfraganus K"|"Satellite Feature"|"Al-Fargani, Abu'l-'Abbas Ahmad Ibn Muhammad Ibn Kathir; Persian astronomer (unkn-c 840)"|-5.2539|19.5373
"Alfraganus M"|"Satellite Feature"|"Al-Fargani, Abu'l-'Abbas Ahmad Ibn Muhammad Ibn Kathir; Persian astronomer (unkn-c 840)"|-5.6571|19.5643
"Alhazen"|"Crater"|"Abu Ali Al-Hasan Ibn Al Haitham; Iraqi mathematician (987-1038)"|15.9148|71.8279
"Alhazen A"|"Satellite Feature"|"Abu Ali Al-Hasan Ibn Al Haitham; Iraqi mathematician (987-1038)"|16.1672|74.3036
"Alhazen D"|"Satellite Feature"|"Abu Ali Al-Hasan Ibn Al Haitham; Iraqi mathematician (987-1038)"|19.6799|75.1747
"Aliacensis"|"Crater"|"D'Ailly, Pierre; French geographer (1350-1420)"|-30.5952|5.1308
"Aliacensis A"|"Satellite Feature"|"D'Ailly, Pierre; French geographer (1350-1420)"|-29.707|7.3923
"Aliacensis B"|"Satellite Feature"|"D'Ailly, Pierre; French geographer (1350-1420)"|-31.4314|3.2034
"Aliacensis C"|"Satellite Feature"|"D'Ailly, Pierre; French geographer (1350-1420)"|-32.7|5.4198
"Aliacensis D"|"Satellite Feature"|"D'Ailly, Pierre; French geographer (1350-1420)"|-33.1854|6.8198
"Aliacensis E"|"Satellite Feature"|"D'Ailly, Pierre; French geographer (1350-1420)"|-30.4213|2.3162
"Aliacensis F"|"Satellite Feature"|"D'Ailly, Pierre; French geographer (1350-1420)"|-32.6642|3.8421
"Aliacensis G"|"Satellite Feature"|"D'Ailly, Pierre; French geographer (1350-1420)"|-33.3898|4.698
"Aliacensis H"|"Satellite Feature"|"D'Ailly, Pierre; French geographer (1350-1420)"|-31.8147|6.0062
"Aliacensis K"|"Satellite Feature"|"D'Ailly, Pierre; French geographer (1350-1420)"|-31.4289|6.2589
"Aliacensis W"|"Satellite Feature"|"D'Ailly, Pierre; French geographer (1350-1420)"|-31.9031|5.3157
"Aliacensis X"|"Satellite Feature"|"D'Ailly, Pierre; French geographer (1350-1420)"|-29.6393|6.782
"Aliacensis Y"|"Satellite Feature"|"D'Ailly, Pierre; French geographer (1350-1420)"|-30.1054|7.3325
"Aliacensis Z"|"Satellite Feature"|"D'Ailly, Pierre; French geographer (1350-1420)"|-30.0545|4.4906
"Almanon"|"Crater"|"Abdalla Al Mamun; Persian astronomer (786-833)"|-16.845|15.1351
"Almanon A"|"Satellite Feature"|"Abdalla Al Mamun; Persian astronomer (786-833)"|-17.7934|15.3226
"Almanon B"|"Satellite Feature"|"Abdalla Al Mamun; Persian astronomer (786-833)"|-18.3343|15.2613
"Almanon C"|"Satellite Feature"|"Abdalla Al Mamun; Persian astronomer (786-833)"|-16.1631|15.9798
"Almanon D"|"Satellite Feature"|"Abdalla Al Mamun; Persian astronomer (786-833)"|-18.5965|15.5424
"Almanon E"|"Satellite Feature"|"Abdalla Al Mamun; Persian astronomer (786-833)"|-17.912|13.6289
"Almanon F"|"Satellite Feature"|"Abdalla Al Mamun; Persian astronomer (786-833)"|-15.9205|14.2695
"Almanon G"|"Satellite Feature"|"Abdalla Al Mamun; Persian astronomer (786-833)"|-17.9321|14.6052
"Almanon H"|"Satellite Feature"|"Abdalla Al Mamun; Persian astronomer (786-833)"|-19.0251|15.2205
"Almanon K"|"Satellite Feature"|"Abdalla Al Mamun; Persian astronomer (786-833)"|-15.8423|15.4343
"Almanon L"|"Satellite Feature"|"Abdalla Al Mamun; Persian astronomer (786-833)"|-18.9952|16.5794
"Almanon P"|"Satellite Feature"|"Abdalla Al Mamun; Persian astronomer (786-833)"|-18.5534|17.0003
"Almanon Q"|"Satellite Feature"|"Abdalla Al Mamun; Persian astronomer (786-833)"|-18.0755|16.9997
"Almanon R"|"Satellite Feature"|"Abdalla Al Mamun; Persian astronomer (786-833)"|-18.1747|15.8808
"Aloha"|"Crater"|"Hawaiian female first name"|29.7926|-53.8796
"Alpes A"|"Satellite Feature"|"Named after Montes Alpes"|51.3862|-0.2996
"Alpes B"|"Satellite Feature"|"Named after Montes Alpes"|45.8145|-0.9116
"Alpetragius"|"Crater"|"Al-Bitruji Al-Ishbili, Abu Ishaq; Spanish astronomer (unkn-c 1100)"|-16.048|-4.5104
"Alpetragius B"|"Satellite Feature"|"Al-Bitruji Al-Ishbili, Abu Ishaq; Spanish astronomer (unkn-c 1100)"|-15.1336|-6.8769
"Alpetragius C"|"Satellite Feature"|"Al-Bitruji Al-Ishbili, Abu Ishaq; Spanish astronomer (unkn-c 1100)"|-13.7494|-6.1658
"Alpetragius G"|"Satellite Feature"|"Al-Bitruji Al-Ishbili, Abu Ishaq; Spanish astronomer (unkn-c 1100)"|-18.1726|-6.5617
"Alpetragius H"|"Satellite Feature"|"Al-Bitruji Al-Ishbili, Abu Ishaq; Spanish astronomer (unkn-c 1100)"|-18.0109|-6.1038
"Alpetragius J"|"Satellite Feature"|"Al-Bitruji Al-Ishbili, Abu Ishaq; Spanish astronomer (unkn-c 1100)"|-18.0489|-5.7035
"Alpetragius M"|"Satellite Feature"|"Al-Bitruji Al-Ishbili, Abu Ishaq; Spanish astronomer (unkn-c 1100)"|-16.4517|-3.2673
"Alpetragius N"|"Satellite Feature"|"Al-Bitruji Al-Ishbili, Abu Ishaq; Spanish astronomer (unkn-c 1100)"|-16.7354|-3.8764
"Alpetragius U"|"Satellite Feature"|"Al-Bitruji Al-Ishbili, Abu Ishaq; Spanish astronomer (unkn-c 1100)"|-17.7104|-5.1072
"Alpetragius V"|"Satellite Feature"|"Al-Bitruji Al-Ishbili, Abu Ishaq; Spanish astronomer (unkn-c 1100)"|-18.1874|-5.8266
"Alpetragius W"|"Satellite Feature"|"Al-Bitruji Al-Ishbili, Abu Ishaq; Spanish astronomer (unkn-c 1100)"|-17.9515|-5.9616
"Alpetragius X"|"Satellite Feature"|"Al-Bitruji Al-Ishbili, Abu Ishaq; Spanish astronomer (unkn-c 1100)"|-15.6089|-5.7361
"Alphonsus"|"Crater"|"Alfonso X (El Sabio); Spanish astronomer (1221-1284)"|-13.3879|-2.8463
"Alphonsus A"|"Satellite Feature"|"Alfonso X (El Sabio); Spanish astronomer (1221-1284)"|-14.8675|-2.2734
"Alphonsus B"|"Satellite Feature"|"Alfonso X (El Sabio); Spanish astronomer (1221-1284)"|-13.2621|-0.1993
"Alphonsus C"|"Satellite Feature"|"Alfonso X (El Sabio); Spanish astronomer (1221-1284)"|-14.4041|-4.8725
"Alphonsus D"|"Satellite Feature"|"Alfonso X (El Sabio); Spanish astronomer (1221-1284)"|-15.0508|-0.8517
"Alphonsus G"|"Satellite Feature"|"Alfonso X (El Sabio); Spanish astronomer (1221-1284)"|-12.3521|-3.3926
"Alphonsus H"|"Satellite Feature"|"Alfonso X (El Sabio); Spanish astronomer (1221-1284)"|-15.6215|-0.5273
"Alphonsus J"|"Satellite Feature"|"Alfonso X (El Sabio); Spanish astronomer (1221-1284)"|-15.1352|-2.5115
"Alphonsus K"|"Satellite Feature"|"Alfonso X (El Sabio); Spanish astronomer (1221-1284)"|-12.61|-0.1149
"Alphonsus L"|"Satellite Feature"|"Alfonso X (El Sabio); Spanish astronomer (1221-1284)"|-12.0219|-3.7231
"Alphonsus R"|"Satellite Feature"|"Alfonso X (El Sabio); Spanish astronomer (1221-1284)"|-14.3929|-1.9227
"Alphonsus X"|"Satellite Feature"|"Alfonso X (El Sabio); Spanish astronomer (1221-1284)"|-14.9873|-4.4586
"Alphonsus Y"|"Satellite Feature"|"Alfonso X (El Sabio); Spanish astronomer (1221-1284)"|-14.706|-1.9183
"Alter"|"Crater"|"Dinsmore; American astronomer, meteorologist (1888-1968)"|18.7401|-107.797
"Alter K"|"Satellite Feature"|"Dinsmore; American astronomer, meteorologist (1888-1968)"|16.2175|-106.189
"Alter W"|"Satellite Feature"|"Dinsmore; American astronomer, meteorologist (1888-1968)"|20.3821|-109.409
"Ameghino"|"Crater"|"Fiorino (or Florentino); Argentine paleontologist and anthropologist (1854-1911)"|3.2995|57.037
"Amici"|"Crater"|"Giovanni Battista; Italian astronomer, optician (1786-1863)"|-10.062|-172.227
"Amici M"|"Satellite Feature"|"Giovanni Battista; Italian astronomer, optician (1786-1863)"|-11.807|-172.022
"Amici N"|"Satellite Feature"|"Giovanni Battista; Italian astronomer, optician (1786-1863)"|-11.8843|-172.54
"Amici P"|"Satellite Feature"|"Giovanni Battista; Italian astronomer, optician (1786-1863)"|-12.3533|-174.127
"Amici Q"|"Satellite Feature"|"Giovanni Battista; Italian astronomer, optician (1786-1863)"|-12.3392|-175.888
"Amici R"|"Satellite Feature"|"Giovanni Battista; Italian astronomer, optician (1786-1863)"|-11.5041|-175.321
"Amici T"|"Satellite Feature"|"Giovanni Battista; Italian astronomer, optician (1786-1863)"|-9.9142|-174.075
"Amici U"|"Satellite Feature"|"Giovanni Battista; Italian astronomer, optician (1786-1863)"|-8.7517|-175.471
"Ammonius"|"Crater"|"Greek philosopher (unkn-c AD 517-526)"|-8.5209|-0.826
"Amontons"|"Crater"|"Guillaume; French physicist (1663-1705)"|-5.3372|46.7779
"Amundsen"|"Crater"|"Roald Engelbregt Gravning; Norwegian explorer (1872-1928)"|-84.4398|83.0691
"Amundsen C"|"Satellite Feature"|"Roald Engelbregt Gravning; Norwegian explorer (1872-1928)"|-80.7588|85.2121
"Anaxagoras"|"Crater"|"Greek astronomer (500-428 BC)"|73.481|-10.1712
"Anaxagoras A"|"Satellite Feature"|"Greek astronomer (500-428 BC)"|72.2582|-7.0201
"Anaxagoras B"|"Satellite Feature"|"Greek astronomer (500-428 BC)"|70.3549|-11.3648
"Anaximander"|"Crater"|"Greek astronomer (c 611-547 BC)"|66.9671|-51.4417
"Anaximander A"|"Satellite Feature"|"Greek astronomer (c 611-547 BC)"|68.0488|-50.4015
"Anaximander B"|"Satellite Feature"|"Greek astronomer (c 611-547 BC)"|68.082|-61.2088
"Anaximander D"|"Satellite Feature"|"Greek astronomer (c 611-547 BC)"|65.7755|-50.6846
"Anaximander H"|"Satellite Feature"|"Greek astronomer (c 611-547 BC)"|65.2882|-41.0556
"Anaximander R"|"Satellite Feature"|"Greek astronomer (c 611-547 BC)"|66.3159|-55.2127
"Anaximander S"|"Satellite Feature"|"Greek astronomer (c 611-547 BC)"|68.3547|-53.5978
"Anaximander T"|"Satellite Feature"|"Greek astronomer (c 611-547 BC)"|67.2965|-52.2707
"Anaximander U"|"Satellite Feature"|"Greek astronomer (c 611-547 BC)"|64.1381|-48.5011
"Anaximenes"|"Crater"|"Greek astronomer (585-528 BC)"|72.485|-44.9825
"Anaximenes B"|"Satellite Feature"|"Greek astronomer (585-528 BC)"|68.9394|-38.0625
"Anaximenes E"|"Satellite Feature"|"Greek astronomer (585-528 BC)"|66.5757|-31.457
"Anaximenes G"|"Satellite Feature"|"Greek astronomer (585-528 BC)"|73.7521|-40.5021
"Anaximenes H"|"Satellite Feature"|"Greek astronomer (585-528 BC)"|74.6381|-45.7034
"Andel"|"Crater"|"Karel; Czechoslovakian astronomer (1884-1948)"|-10.4141|12.3835
"Andel A"|"Satellite Feature"|"Karel; Czechoslovakian astronomer (1884-1948)"|-10.8136|11.244
"Andel C"|"Satellite Feature"|"Karel; Czechoslovakian astronomer (1884-1948)"|-9.0095|11.1526
"Andel D"|"Satellite Feature"|"Karel; Czechoslovakian astronomer (1884-1948)"|-10.7865|11.7063
"Andel E"|"Satellite Feature"|"Karel; Czechoslovakian astronomer (1884-1948)"|-12.0198|12.2238
"Andel F"|"Satellite Feature"|"Karel; Czechoslovakian astronomer (1884-1948)"|-8.3389|11.0801
"Andel G"|"Satellite Feature"|"Karel; Czechoslovakian astronomer (1884-1948)"|-10.9405|12.3108
"Andel H"|"Satellite Feature"|"Karel; Czechoslovakian astronomer (1884-1948)"|-6.6681|11.3108
"Andel J"|"Satellite Feature"|"Karel; Czechoslovakian astronomer (1884-1948)"|-7.5441|11.4145
"Andel K"|"Satellite Feature"|"Karel; Czechoslovakian astronomer (1884-1948)"|-5.8315|11.5614
"Andel M"|"Satellite Feature"|"Karel; Czechoslovakian astronomer (1884-1948)"|-9.7537|11.1166
"Andel N"|"Satellite Feature"|"Karel; Czechoslovakian astronomer (1884-1948)"|-10.2418|11.3381
"Andel P"|"Satellite Feature"|"Karel; Czechoslovakian astronomer (1884-1948)"|-11.652|12.2022
"Andel S"|"Satellite Feature"|"Karel; Czechoslovakian astronomer (1884-1948)"|-11.3978|12.6996
"Andel T"|"Satellite Feature"|"Karel; Czechoslovakian astronomer (1884-1948)"|-11.249|13.2435
"Andel W"|"Satellite Feature"|"Karel; Czechoslovakian astronomer (1884-1948)"|-12.3633|12.2572
"Anders"|"Crater"|"William Alison; American astronaut (1933-Live)"|-41.3146|-143.301
"Anders D"|"Satellite Feature"|"William Alison; American astronaut (1933-Live)"|-40.2614|-140.856
"Anders Earthrise"|"Crater"|"Crater visible in the foreground of the iconic “Earthrise” colour photograph, taken aboard Apollo 8 by W A Anders on December 24, 1968, showing the Earth and part of the Moon’s surface The crater was previously designated Pasteur T"|-11.7297|100.465
"Anders G"|"Satellite Feature"|"William Alison; American astronaut (1933-Live)"|-41.8126|-142.18
"Anders X"|"Satellite Feature"|"William Alison; American astronaut (1933-Live)"|-39.7297|-144.248
"Anderson"|"Crater"|"John August; American astronomer (1876-1959)"|15.4993|170.794
"Anderson E"|"Satellite Feature"|"John August; American astronomer (1876-1959)"|16.9795|173.528
"Anderson F"|"Satellite Feature"|"John August; American astronomer (1876-1959)"|16.2815|173.798
"Anderson L"|"Satellite Feature"|"John August; American astronomer (1876-1959)"|14.7142|171.127
"Andersson"|"Crater"|"Leif Erland; American astronomer (1943-1979)"|-49.9498|-95.4628
"Andronov"|"Crater"|"Aleksandr Aleksandrovich; Soviet physicist (1901-1952)"|-22.6807|146.108
"Ango"|"Crater"|"African male name"|20.4775|-32.338
"Angstrom"|"Crater"|"Anders Jonas; Swedish physicist (1814-1874)"|29.8957|-41.6674
"Angstrom A"|"Satellite Feature"|"Anders Jonas; Swedish physicist (1814-1874)"|30.9156|-41.151
"Angstrom B"|"Satellite Feature"|"Anders Jonas; Swedish physicist (1814-1874)"|31.7619|-44.1894
"Ann"|"Crater"|"Hebrew female name"|25.1094|-0.054
"Annegrit"|"Crater"|"German female name"|29.4309|-25.6365
"Ansgarius"|"Crater"|"St Ansgar; German theologian (801-864)"|-12.9235|79.7231
"Ansgarius B"|"Satellite Feature"|"St Ansgar; German theologian (801-864)"|-11.9873|84.1077
"Ansgarius C"|"Satellite Feature"|"St Ansgar; German theologian (801-864)"|-14.7873|74.827
"Ansgarius M"|"Satellite Feature"|"St Ansgar; German theologian (801-864)"|-11.2476|78.7928
"Ansgarius N"|"Satellite Feature"|"St Ansgar; German theologian (801-864)"|-11.9145|81.1817
"Ansgarius P"|"Satellite Feature"|"St Ansgar; German theologian (801-864)"|-13.0606|75.6577
"Antoniadi"|"Crater"|"Eugène Michael; Turkish-born French astronomer (1870-1944)"|-69.3026|-173.059
"Anuchin"|"Crater"|"Dimitrii Nikolaevich; Russian geographer (1843-1923)"|-48.853|101.66
"Anuchin B"|"Satellite Feature"|"Dimitrii Nikolaevich; Russian geographer (1843-1923)"|-46.443|103.57
"Anuchin L"|"Satellite Feature"|"Dimitrii Nikolaevich; Russian geographer (1843-1923)"|-49.8411|101.918
"Anuchin N"|"Satellite Feature"|"Dimitrii Nikolaevich; Russian geographer (1843-1923)"|-51.2773|100.033
"Anuchin Q"|"Satellite Feature"|"Dimitrii Nikolaevich; Russian geographer (1843-1923)"|-50.8198|98.766
"Anuchin V"|"Satellite Feature"|"Dimitrii Nikolaevich; Russian geographer (1843-1923)"|-47.8138|99.8008
"Anville"|"Crater"|"Jean-Baptiste Bourguignon; French cartographer (1697-1782)"|1.8428|49.508
"Apennine Front"|"Landing site name"|"Astronaut-named feature, Apollo 15 site"|25.9216|3.6842
"Apianus"|"Crater"|"Bienewitz, Peter; German mathematician, astronomer (1495-1552)"|-26.9625|7.8682
"Apianus A"|"Satellite Feature"|"Bienewitz, Peter; German mathematician, astronomer (1495-1552)"|-25.6996|6.517
"Apianus B"|"Satellite Feature"|"Bienewitz, Peter; German mathematician, astronomer (1495-1552)"|-27.4036|8.9853
"Apianus C"|"Satellite Feature"|"Bienewitz, Peter; German mathematician, astronomer (1495-1552)"|-28.1349|10.4581
"Apianus D"|"Satellite Feature"|"Bienewitz, Peter; German mathematician, astronomer (1495-1552)"|-26.0794|10.6643
"Apianus E"|"Satellite Feature"|"Bienewitz, Peter; German mathematician, astronomer (1495-1552)"|-28.8501|8.1882
"Apianus F"|"Satellite Feature"|"Bienewitz, Peter; German mathematician, astronomer (1495-1552)"|-28.1412|6.3299
"Apianus G"|"Satellite Feature"|"Bienewitz, Peter; German mathematician, astronomer (1495-1552)"|-28.1246|7.6446
"Apianus H"|"Satellite Feature"|"Bienewitz, Peter; German mathematician, astronomer (1495-1552)"|-28.1522|8.6411
"Apianus J"|"Satellite Feature"|"Bienewitz, Peter; German mathematician, astronomer (1495-1552)"|-26.3258|8.5194
"Apianus K"|"Satellite Feature"|"Bienewitz, Peter; German mathematician, astronomer (1495-1552)"|-27.4797|9.3113
"Apianus L"|"Satellite Feature"|"Bienewitz, Peter; German mathematician, astronomer (1495-1552)"|-29.123|10.8476
"Apianus M"|"Satellite Feature"|"Bienewitz, Peter; German mathematician, astronomer (1495-1552)"|-24.775|10.2859
"Apianus N"|"Satellite Feature"|"Bienewitz, Peter; German mathematician, astronomer (1495-1552)"|-28.8908|9.9055
"Apianus P"|"Satellite Feature"|"Bienewitz, Peter; German mathematician, astronomer (1495-1552)"|-25.2854|9.1293
"Apianus R"|"Satellite Feature"|"Bienewitz, Peter; German mathematician, astronomer (1495-1552)"|-25.7885|8.895
"Apianus S"|"Satellite Feature"|"Bienewitz, Peter; German mathematician, astronomer (1495-1552)"|-25.8082|8.474
"Apianus T"|"Satellite Feature"|"Bienewitz, Peter; German mathematician, astronomer (1495-1552)"|-27.7304|9.446
"Apianus U"|"Satellite Feature"|"Bienewitz, Peter; German mathematician, astronomer (1495-1552)"|-27.9149|8.9753
"Apianus V"|"Satellite Feature"|"Bienewitz, Peter; German mathematician, astronomer (1495-1552)"|-25.1903|10.4006
"Apianus W"|"Satellite Feature"|"Bienewitz, Peter; German mathematician, astronomer (1495-1552)"|-25.5992|7.4642
"Apianus X"|"Satellite Feature"|"Bienewitz, Peter; German mathematician, astronomer (1495-1552)"|-28.34|7.019
"Apollo"|"Crater"|"Named to honor Apollo missions"|-35.6874|-151.478
"Apollonius"|"Crater"|"Apollonius of Perga; Greek mathematician (c 262-190 BC)"|4.5053|60.9648
"Apollonius A"|"Satellite Feature"|"Apollonius of Perga; Greek mathematician (c 262-190 BC)"|4.8239|56.8533
"Apollonius B"|"Satellite Feature"|"Apollonius of Perga; Greek mathematician (c 262-190 BC)"|5.8668|57.598
"Apollonius E"|"Satellite Feature"|"Apollonius of Perga; Greek mathematician (c 262-190 BC)"|4.3412|61.8554
"Apollonius F"|"Satellite Feature"|"Apollonius of Perga; Greek mathematician (c 262-190 BC)"|5.5992|59.9382
"Apollonius H"|"Satellite Feature"|"Apollonius of Perga; Greek mathematician (c 262-190 BC)"|3.431|59.5056
"Apollonius J"|"Satellite Feature"|"Apollonius of Perga; Greek mathematician (c 262-190 BC)"|4.6273|57.4842
"Apollonius L"|"Satellite Feature"|"Apollonius of Perga; Greek mathematician (c 262-190 BC)"|6.471|54.5668
"Apollonius M"|"Satellite Feature"|"Apollonius of Perga; Greek mathematician (c 262-190 BC)"|4.7298|61.7737
"Apollonius N"|"Satellite Feature"|"Apollonius of Perga; Greek mathematician (c 262-190 BC)"|4.7457|63.7679
"Apollonius S"|"Satellite Feature"|"Apollonius of Perga; Greek mathematician (c 262-190 BC)"|1.2602|62.5812
"Apollonius U"|"Satellite Feature"|"Apollonius of Perga; Greek mathematician (c 262-190 BC)"|4.8893|59.8729
"Apollonius V"|"Satellite Feature"|"Apollonius of Perga; Greek mathematician (c 262-190 BC)"|4.3941|58.2236
"Apollonius X"|"Satellite Feature"|"Apollonius of Perga; Greek mathematician (c 262-190 BC)"|6.8953|58.1753
"Apollonius Y"|"Satellite Feature"|"Apollonius of Perga; Greek mathematician (c 262-190 BC)"|4.8781|62.6045
"Appleton"|"Crater"|"Sir Edward Victor; British physicist; Nobel laureate (1892-1965)"|37.0465|158.169
"Appleton D"|"Satellite Feature"|"Sir Edward Victor; British physicist; Nobel laureate (1892-1965)"|37.7736|160.626
"Appleton M"|"Satellite Feature"|"Sir Edward Victor; British physicist; Nobel laureate (1892-1965)"|33.7188|158.263
"Appleton Q"|"Satellite Feature"|"Sir Edward Victor; British physicist; Nobel laureate (1892-1965)"|34.1798|155.312
"Appleton R"|"Satellite Feature"|"Sir Edward Victor; British physicist; Nobel laureate (1892-1965)"|36.1276|156.255
"Arago"|"Crater"|"Dominique Francois Jean; French astronomer (1786-1853)"|6.1487|21.4261
"Arago B"|"Satellite Feature"|"Dominique Francois Jean; French astronomer (1786-1853)"|3.4268|20.8164
"Arago C"|"Satellite Feature"|"Dominique Francois Jean; French astronomer (1786-1853)"|3.8879|21.4775
"Arago D"|"Satellite Feature"|"Dominique Francois Jean; French astronomer (1786-1853)"|6.9142|22.3933
"Arago E"|"Satellite Feature"|"Dominique Francois Jean; French astronomer (1786-1853)"|8.5115|22.7083
"Aratus"|"Crater"|"Aratus of Soli; Greek astronomer (c 310-240/239 BC)"|23.5793|4.5052
"Aratus B"|"Satellite Feature"|"Aratus of Soli; Greek astronomer (c 310-240/239 BC)"|24.1795|5.4312
"Aratus C"|"Satellite Feature"|"Aratus of Soli; Greek astronomer (c 310-240/239 BC)"|24.0776|9.459
"Aratus CA"|"Satellite Feature"|"Aratus of Soli; Greek astronomer (c 310-240/239 BC)"|24.5553|11.18
"Aratus D"|"Satellite Feature"|"Aratus of Soli; Greek astronomer (c 310-240/239 BC)"|24.3736|8.6072
"Archimedes"|"Crater"|"Greek physicist, mathematician (c 287-212 BC)"|29.7172|-3.9931
"Archimedes C"|"Satellite Feature"|"Greek physicist, mathematician (c 287-212 BC)"|31.6344|-1.5286
"Archimedes D"|"Satellite Feature"|"Greek physicist, mathematician (c 287-212 BC)"|32.2023|-2.6934
"Archimedes E"|"Satellite Feature"|"Greek physicist, mathematician (c 287-212 BC)"|25|-7.2044
"Archimedes G"|"Satellite Feature"|"Greek physicist, mathematician (c 287-212 BC)"|29.1438|-8.1526
"Archimedes H"|"Satellite Feature"|"Greek physicist, mathematician (c 287-212 BC)"|23.8921|-7.024
"Archimedes L"|"Satellite Feature"|"Greek physicist, mathematician (c 287-212 BC)"|25.0411|-2.6109
"Archimedes M"|"Satellite Feature"|"Greek physicist, mathematician (c 287-212 BC)"|26.1244|-3.2086
"Archimedes N"|"Satellite Feature"|"Greek physicist, mathematician (c 287-212 BC)"|24.1521|-3.8905
"Archimedes P"|"Satellite Feature"|"Greek physicist, mathematician (c 287-212 BC)"|25.9392|-2.5029
"Archimedes Q"|"Satellite Feature"|"Greek physicist, mathematician (c 287-212 BC)"|28.5161|-2.4292
"Archimedes R"|"Satellite Feature"|"Greek physicist, mathematician (c 287-212 BC)"|26.0736|-6.6089
"Archimedes S"|"Satellite Feature"|"Greek physicist, mathematician (c 287-212 BC)"|29.5573|-2.725
"Archimedes T"|"Satellite Feature"|"Greek physicist, mathematician (c 287-212 BC)"|30.2979|-5.0283
"Archimedes U"|"Satellite Feature"|"Greek physicist, mathematician (c 287-212 BC)"|32.8333|-1.9559
"Archimedes V"|"Satellite Feature"|"Greek physicist, mathematician (c 287-212 BC)"|32.9797|-4.0131
"Archimedes W"|"Satellite Feature"|"Greek physicist, mathematician (c 287-212 BC)"|23.8036|-6.2488
"Archimedes X"|"Satellite Feature"|"Greek physicist, mathematician (c 287-212 BC)"|31.0288|-8.0236
"Archimedes Y"|"Satellite Feature"|"Greek physicist, mathematician (c 287-212 BC)"|29.9709|-9.4974
"Archimedes Z"|"Satellite Feature"|"Greek physicist, mathematician (c 287-212 BC)"|26.8778|-1.4096
"Archytas"|"Crater"|"Greek mathematician (428-347 BC ?)"|58.8662|4.9925
"Archytas B"|"Satellite Feature"|"Greek mathematician (428-347 BC ?)"|61.4377|3.1722
"Archytas D"|"Satellite Feature"|"Greek mathematician (428-347 BC ?)"|63.7066|11.8975
"Archytas G"|"Satellite Feature"|"Greek mathematician (428-347 BC ?)"|55.7329|0.5313
"Archytas K"|"Satellite Feature"|"Greek mathematician (428-347 BC ?)"|62.6623|7.6794
"Archytas L"|"Satellite Feature"|"Greek mathematician (428-347 BC ?)"|56.191|0.9049
"Archytas U"|"Satellite Feature"|"Greek mathematician (428-347 BC ?)"|62.8956|9.2172
"Archytas W"|"Satellite Feature"|"Greek mathematician (428-347 BC ?)"|61.2865|5.1972
"Argelander"|"Crater"|"Friedrich Wilhelm August; German astronomer (1799-1875)"|-16.5493|5.8011
"Argelander A"|"Satellite Feature"|"Friedrich Wilhelm August; German astronomer (1799-1875)"|-16.5367|6.7455
"Argelander B"|"Satellite Feature"|"Friedrich Wilhelm August; German astronomer (1799-1875)"|-15.5952|5.1047
"Argelander C"|"Satellite Feature"|"Friedrich Wilhelm August; German astronomer (1799-1875)"|-16.277|5.72
"Argelander D"|"Satellite Feature"|"Friedrich Wilhelm August; German astronomer (1799-1875)"|-17.6365|4.4432
"Argelander W"|"Satellite Feature"|"Friedrich Wilhelm August; German astronomer (1799-1875)"|-16.7469|4.1844
"Ariadaeus"|"Crater"|"Philip III of Macedonia; chronologer (c 358-317 BC)"|4.5549|17.2763
"Ariadaeus A"|"Satellite Feature"|"Philip III of Macedonia; chronologer (c 358-317 BC)"|4.642|17.4869
"Ariadaeus B"|"Satellite Feature"|"Philip III of Macedonia; chronologer (c 358-317 BC)"|4.8994|15.0574
"Ariadaeus D"|"Satellite Feature"|"Philip III of Macedonia; chronologer (c 358-317 BC)"|4.8768|17.0252
"Ariadaeus E"|"Satellite Feature"|"Philip III of Macedonia; chronologer (c 358-317 BC)"|5.3207|17.6273
"Ariadaeus F"|"Satellite Feature"|"Philip III of Macedonia; chronologer (c 358-317 BC)"|4.3241|18.008
"Aristarchus"|"Crater"|"Greek astronomer (310-230 BC ?)"|23.7299|-47.4901
"Aristarchus B"|"Satellite Feature"|"Greek astronomer (310-230 BC ?)"|26.2787|-46.8459
"Aristarchus D"|"Satellite Feature"|"Greek astronomer (310-230 BC ?)"|23.7305|-42.8816
"Aristarchus F"|"Satellite Feature"|"Greek astronomer (310-230 BC ?)"|21.6673|-46.5728
"Aristarchus H"|"Satellite Feature"|"Greek astronomer (310-230 BC ?)"|22.6143|-45.7441
"Aristarchus N"|"Satellite Feature"|"Greek astronomer (310-230 BC ?)"|22.8328|-43.027
"Aristarchus S"|"Satellite Feature"|"Greek astronomer (310-230 BC ?)"|19.2908|-46.2825
"Aristarchus T"|"Satellite Feature"|"Greek astronomer (310-230 BC ?)"|19.6688|-46.4997
"Aristarchus U"|"Satellite Feature"|"Greek astronomer (310-230 BC ?)"|19.7293|-48.6408
"Aristarchus Z"|"Satellite Feature"|"Greek astronomer (310-230 BC ?)"|25.4854|-48.4867
"Aristillus"|"Crater"|"Greek astronomer (fl c 280 BC)"|33.8808|1.2075
"Aristillus A"|"Satellite Feature"|"Greek astronomer (fl c 280 BC)"|33.6433|4.5337
"Aristillus B"|"Satellite Feature"|"Greek astronomer (fl c 280 BC)"|34.7958|-1.925
"Aristoteles"|"Crater"|"Greek astronomer, philosopher (383-322 BC)"|50.243|17.32
"Aristoteles D"|"Satellite Feature"|"Greek astronomer, philosopher (383-322 BC)"|47.483|14.7138
"Aristoteles M"|"Satellite Feature"|"Greek astronomer, philosopher (383-322 BC)"|53.4989|27.2625
"Aristoteles N"|"Satellite Feature"|"Greek astronomer, philosopher (383-322 BC)"|52.8995|26.8377
"Arminski"|"Crater"|"Franciszek; Polish astronomer (1789-1848) (Spelling changed from ArmÃ­nski)"|-16.3628|154.216
"Arminski D"|"Satellite Feature"|"Franciszek; Polish astronomer (1789-1848) (Spelling changed from ArmÃ­nski)"|-16.0441|154.971
"Arminski K"|"Satellite Feature"|"Franciszek; Polish astronomer (1789-1848) (Spelling changed from ArmÃ­nski)"|-17.093|154.643
"Armstrong"|"Crater"|"Neil Alden; American astronaut (1930-2012)"|1.3535|24.9437
"Arnold"|"Crater"|"Christoph; German astronomer (1650-1695)"|66.9846|35.8286
"Arnold A"|"Satellite Feature"|"Christoph; German astronomer (1650-1695)"|68.7682|39.599
"Arnold E"|"Satellite Feature"|"Christoph; German astronomer (1650-1695)"|71.4824|38.0951
"Arnold F"|"Satellite Feature"|"Christoph; German astronomer (1650-1695)"|67.5513|35.1811
"Arnold G"|"Satellite Feature"|"Christoph; German astronomer (1650-1695)"|67.3907|31.4497
"Arnold H"|"Satellite Feature"|"Christoph; German astronomer (1650-1695)"|72.5922|44.981
"Arnold J"|"Satellite Feature"|"Christoph; German astronomer (1650-1695)"|65.8951|33.8166
"Arnold K"|"Satellite Feature"|"Christoph; German astronomer (1650-1695)"|70.7073|42.3781
"Arnold L"|"Satellite Feature"|"Christoph; German astronomer (1650-1695)"|69.9978|35.7717
"Arnold M"|"Satellite Feature"|"Christoph; German astronomer (1650-1695)"|68.293|43.5915
"Arnold N"|"Satellite Feature"|"Christoph; German astronomer (1650-1695)"|70.1525|41.6042
"Arrhenius"|"Crater"|"Svante August; Swedish chemist; Nobel laureate (1859-1927)"|-55.5837|-91.4537
"Arrhenius J"|"Satellite Feature"|"Svante August; Swedish chemist; Nobel laureate (1859-1927)"|-57.5169|-88.4508
"Artamonov"|"Crater"|"Nikolaj N; Soviet rocket scientist (1906-1965)"|25.4387|103.785
"Artem ev"|"Crater"|"Vladimir Andreevich; Soviet rocket scientist (1885-1962)"|10.3953|-145.222
"Artem ev G"|"Satellite Feature"|"Vladimir Andreevich; Soviet rocket scientist (1885-1962)"|10.0118|-143.692
"Artem ev L"|"Satellite Feature"|"Vladimir Andreevich; Soviet rocket scientist (1885-1962)"|7.9628|-144.203
"Artemis"|"Crater"|"Greek female first name"|25.0326|-25.3552
"Artsimovich"|"Crater"|"Lev Andreevich; Soviet physicist (1909-1973)"|27.6116|-36.6281
"Aryabhata"|"Crater"|"Aryabhata I; Indian astronomer, mathematician (476-c550)"|6.2028|35.1733
"Arzachel"|"Crater"|"Al-Zarqali; Spanish-Arabic astronomer (died 1100)"|-18.2643|-1.9304
"Arzachel A"|"Satellite Feature"|"Al-Zarqali; Spanish-Arabic astronomer (died 1100)"|-18.0645|-1.5099
"Arzachel B"|"Satellite Feature"|"Al-Zarqali; Spanish-Arabic astronomer (died 1100)"|-17.0617|-2.9844
"Arzachel C"|"Satellite Feature"|"Al-Zarqali; Spanish-Arabic astronomer (died 1100)"|-17.4864|-3.7073
"Arzachel D"|"Satellite Feature"|"Al-Zarqali; Spanish-Arabic astronomer (died 1100)"|-20.1932|-2.1439
"Arzachel H"|"Satellite Feature"|"Al-Zarqali; Spanish-Arabic astronomer (died 1100)"|-18.6928|-2.0477
"Arzachel K"|"Satellite Feature"|"Al-Zarqali; Spanish-Arabic astronomer (died 1100)"|-18.3777|-1.6238
"Arzachel L"|"Satellite Feature"|"Al-Zarqali; Spanish-Arabic astronomer (died 1100)"|-19.963|0.1329
"Arzachel M"|"Satellite Feature"|"Al-Zarqali; Spanish-Arabic astronomer (died 1100)"|-20.647|-0.8738
"Arzachel N"|"Satellite Feature"|"Al-Zarqali; Spanish-Arabic astronomer (died 1100)"|-20.4156|-2.2693
"Arzachel T"|"Satellite Feature"|"Al-Zarqali; Spanish-Arabic astronomer (died 1100)"|-17.6846|-1.2995
"Arzachel Y"|"Satellite Feature"|"Al-Zarqali; Spanish-Arabic astronomer (died 1100)"|-18.2736|-4.2604
"Asada"|"Crater"|"Goryu; Japanese astronomer (1734-1799)"|7.2466|49.9018
"Asclepi"|"Crater"|"Giuseppe Maria; Italian astronomer (1706-1776)"|-55.1899|25.5231
"Asclepi A"|"Satellite Feature"|"Giuseppe Maria; Italian astronomer (1706-1776)"|-53.0979|23.0142
"Asclepi B"|"Satellite Feature"|"Giuseppe Maria; Italian astronomer (1706-1776)"|-54.2392|23.8256
"Asclepi C"|"Satellite Feature"|"Giuseppe Maria; Italian astronomer (1706-1776)"|-53.5794|23.5491
"Asclepi D"|"Satellite Feature"|"Giuseppe Maria; Italian astronomer (1706-1776)"|-53.6599|24.0876
"Asclepi E"|"Satellite Feature"|"Giuseppe Maria; Italian astronomer (1706-1776)"|-52.2589|24.1549
"Asclepi G"|"Satellite Feature"|"Giuseppe Maria; Italian astronomer (1706-1776)"|-53.495|24.7982
"Asclepi H"|"Satellite Feature"|"Giuseppe Maria; Italian astronomer (1706-1776)"|-52.8037|25.1961
"Ashbrook"|"Crater"|"Joseph; American astronomer (1918-1980)"|-81.1043|-110.575
"Aston"|"Crater"|"Francis William; British chemist, physicist; Nobel laureate (1877-1945)"|32.7658|-87.6848
"Aston K"|"Satellite Feature"|"Francis William; British chemist, physicist; Nobel laureate (1877-1945)"|35.0354|-87.8877
"Aston L"|"Satellite Feature"|"Francis William; British chemist, physicist; Nobel laureate (1877-1945)"|35.4722|-86.5073
"Atlas"|"Crater"|"Mythological Greek Titan"|46.7403|44.3816
"Atlas A"|"Satellite Feature"|"Mythological Greek Titan"|45.3407|49.5578
"Atlas D"|"Satellite Feature"|"Mythological Greek Titan"|50.4007|49.6504
"Atlas E"|"Satellite Feature"|"Mythological Greek Titan"|48.6057|42.4999
"Atlas G"|"Satellite Feature"|"Mythological Greek Titan"|50.7274|46.4686
"Atlas L"|"Satellite Feature"|"Mythological Greek Titan"|51.3324|48.6154
"Atlas P"|"Satellite Feature"|"Mythological Greek Titan"|49.6579|53.0003
"Atlas W"|"Satellite Feature"|"Mythological Greek Titan"|44.425|44.222
"Atlas X"|"Satellite Feature"|"Mythological Greek Titan"|45.1241|45.1048
"Atwood"|"Crater"|"George; British mathematician, physicist (1746-1807)"|-5.877|57.775
"Autolycus"|"Crater"|"Autolycus of Pitane; Greek astronomer (fl c 310 BC)"|30.6757|1.4858
"Autolycus A"|"Satellite Feature"|"Autolycus of Pitane; Greek astronomer (fl c 310 BC)"|30.9237|2.1727
"Autolycus K"|"Satellite Feature"|"Autolycus of Pitane; Greek astronomer (fl c 310 BC)"|31.214|5.426
"Auwers"|"Crater"|"Georg Friedrich Julius Arthur; German astronomer (1838-1915)"|14.9968|17.1184
"Auwers A"|"Satellite Feature"|"Georg Friedrich Julius Arthur; German astronomer (1838-1915)"|13.7735|18.3064
"Auzout"|"Crater"|"Adrien; French astronomer, physicist (1622-1691)"|10.2078|64.0092
"Auzout C"|"Satellite Feature"|"Adrien; French astronomer, physicist (1622-1691)"|8.7857|65.2681
"Auzout D"|"Satellite Feature"|"Adrien; French astronomer, physicist (1622-1691)"|9.349|62.4278
"Auzout E"|"Satellite Feature"|"Adrien; French astronomer, physicist (1622-1691)"|9.5696|60.6589
"Auzout L"|"Satellite Feature"|"Adrien; French astronomer, physicist (1622-1691)"|8.3424|61.2956
"Auzout R"|"Satellite Feature"|"Adrien; French astronomer, physicist (1622-1691)"|8.7029|60.0443
"Auzout U"|"Satellite Feature"|"Adrien; French astronomer, physicist (1622-1691)"|9.3943|61.0456
"Auzout V"|"Satellite Feature"|"Adrien; French astronomer, physicist (1622-1691)"|9.3415|61.309
"Avery"|"Crater"|"Oswald Theodore; Canadian doctor (1877-1955)"|-1.3172|81.3667
"Avicenna"|"Crater"|"Abu Ali Al-Hussein Ibn Abdallah; Persian doctor (980-1037)"|39.6254|-97.2768
"Avicenna E"|"Satellite Feature"|"Abu Ali Al-Hussein Ibn Abdallah; Persian doctor (980-1037)"|40.1947|-91.2505
"Avicenna G"|"Satellite Feature"|"Abu Ali Al-Hussein Ibn Abdallah; Persian doctor (980-1037)"|39.1863|-92.0533
"Avicenna R"|"Satellite Feature"|"Abu Ali Al-Hussein Ibn Abdallah; Persian doctor (980-1037)"|38.8952|-100.076
"Avogadro"|"Crater"|"Amedeo (Conte Di Quarengna); Italian physicist (1776-1856)"|63.2138|165.364
"Avogadro D"|"Satellite Feature"|"Amedeo (Conte Di Quarengna); Italian physicist (1776-1856)"|63.8436|170.224
"Azophi"|"Crater"|"Al-Sufi, Abderrahman; Persian astronomer (903-986)"|-22.193|12.6958
"Azophi A"|"Satellite Feature"|"Al-Sufi, Abderrahman; Persian astronomer (903-986)"|-24.4328|11.1829
"Azophi B"|"Satellite Feature"|"Al-Sufi, Abderrahman; Persian astronomer (903-986)"|-23.585|10.5889
"Azophi C"|"Satellite Feature"|"Al-Sufi, Abderrahman; Persian astronomer (903-986)"|-21.8099|13.0612
"Azophi D"|"Satellite Feature"|"Al-Sufi, Abderrahman; Persian astronomer (903-986)"|-24.3247|13.3892
"Azophi E"|"Satellite Feature"|"Al-Sufi, Abderrahman; Persian astronomer (903-986)"|-23.4834|13.7718
"Azophi F"|"Satellite Feature"|"Al-Sufi, Abderrahman; Persian astronomer (903-986)"|-22.3089|13.8381
"Azophi G"|"Satellite Feature"|"Al-Sufi, Abderrahman; Persian astronomer (903-986)"|-23.8671|12.2677
"Azophi H"|"Satellite Feature"|"Al-Sufi, Abderrahman; Persian astronomer (903-986)"|-25.583|11.8393
"Azophi J"|"Satellite Feature"|"Al-Sufi, Abderrahman; Persian astronomer (903-986)"|-21.2856|13.167
"Baade"|"Crater"|"Wilhelm Heinrich Walter; American astronomer (1893-1960)"|-44.7496|-82.0346
"Babakin"|"Crater"|"Georgii Nikolaevich; Soviet space scientist (1914-1971)"|-20.8126|123.263
"Babbage"|"Crater"|"Charles; British mathematician (1792-1871)"|59.5623|-57.3831
"Babbage A"|"Satellite Feature"|"Charles; British mathematician (1792-1871)"|59.1432|-55.6452
"Babbage B"|"Satellite Feature"|"Charles; British mathematician (1792-1871)"|57.0549|-59.6345
"Babbage C"|"Satellite Feature"|"Charles; British mathematician (1792-1871)"|59.1931|-57.5124
"Babbage D"|"Satellite Feature"|"Charles; British mathematician (1792-1871)"|58.649|-61.1659
"Babbage E"|"Satellite Feature"|"Charles; British mathematician (1792-1871)"|58.4674|-61.6051
"Babbage U"|"Satellite Feature"|"Charles; British mathematician (1792-1871)"|60.9666|-51.3425
"Babbage X"|"Satellite Feature"|"Charles; British mathematician (1792-1871)"|60.297|-50.2846
"Babcock"|"Crater"|"Harold Delos; American astronomer, physicist (1882-1968)"|4.1343|94.1357
"Babcock H"|"Satellite Feature"|"Harold Delos; American astronomer, physicist (1882-1968)"|3.1092|96.508
"Babcock K"|"Satellite Feature"|"Harold Delos; American astronomer, physicist (1882-1968)"|1.1884|95.1449
"Baby Ray"|"Landing site name"|"Astronaut-named feature, Apollo 16 site"|-9.0836|15.4238
"Back"|"Crater"|"Ernst Emil Alexander; German physicist (1881-1959)"|1.1964|80.668
"Backlund"|"Crater"|"Jöns Oskar; Russian astronomer (1846-1916)"|-16.217|103.347
"Backlund E"|"Satellite Feature"|"Jöns Oskar; Russian astronomer (1846-1916)"|-15.798|105.57
"Backlund L"|"Satellite Feature"|"Jöns Oskar; Russian astronomer (1846-1916)"|-18.3669|103.815
"Backlund N"|"Satellite Feature"|"Jöns Oskar; Russian astronomer (1846-1916)"|-17.9104|103.067
"Backlund P"|"Satellite Feature"|"Jöns Oskar; Russian astronomer (1846-1916)"|-19.006|102.309
"Backlund R"|"Satellite Feature"|"Jöns Oskar; Russian astronomer (1846-1916)"|-16.9008|101.866
"Backlund S"|"Satellite Feature"|"Jöns Oskar; Russian astronomer (1846-1916)"|-16.9228|100.99
"Baco"|"Crater"|"Bacon, Roger; British natural philosopher, optician (c 1214-c 1294)"|-51.0441|19.0964
"Baco A"|"Satellite Feature"|"Bacon, Roger; British natural philosopher, optician (c 1214-c 1294)"|-52.9861|20.2108
"Baco B"|"Satellite Feature"|"Bacon, Roger; British natural philosopher, optician (c 1214-c 1294)"|-49.6312|16.5813
"Baco C"|"Satellite Feature"|"Bacon, Roger; British natural philosopher, optician (c 1214-c 1294)"|-50.9188|14.7075
"Baco D"|"Satellite Feature"|"Bacon, Roger; British natural philosopher, optician (c 1214-c 1294)"|-51.727|16.295
"Baco E"|"Satellite Feature"|"Bacon, Roger; British natural philosopher, optician (c 1214-c 1294)"|-53.0287|16.1655
"Baco F"|"Satellite Feature"|"Bacon, Roger; British natural philosopher, optician (c 1214-c 1294)"|-50.3654|17.6454
"Baco G"|"Satellite Feature"|"Bacon, Roger; British natural philosopher, optician (c 1214-c 1294)"|-54.4688|17.1598
"Baco H"|"Satellite Feature"|"Bacon, Roger; British natural philosopher, optician (c 1214-c 1294)"|-52.0665|18.9491
"Baco J"|"Satellite Feature"|"Bacon, Roger; British natural philosopher, optician (c 1214-c 1294)"|-54.8307|19.265
"Baco K"|"Satellite Feature"|"Bacon, Roger; British natural philosopher, optician (c 1214-c 1294)"|-54.0794|17.6243
"Baco L"|"Satellite Feature"|"Bacon, Roger; British natural philosopher, optician (c 1214-c 1294)"|-49.6006|16.7543
"Baco M"|"Satellite Feature"|"Bacon, Roger; British natural philosopher, optician (c 1214-c 1294)"|-49.2658|17.9515
"Baco N"|"Satellite Feature"|"Bacon, Roger; British natural philosopher, optician (c 1214-c 1294)"|-50.896|16.2042
"Baco O"|"Satellite Feature"|"Bacon, Roger; British natural philosopher, optician (c 1214-c 1294)"|-52.125|19.8803
"Baco P"|"Satellite Feature"|"Bacon, Roger; British natural philosopher, optician (c 1214-c 1294)"|-51.0369|19.726
"Baco Q"|"Satellite Feature"|"Bacon, Roger; British natural philosopher, optician (c 1214-c 1294)"|-52.4061|18.6195
"Baco R"|"Satellite Feature"|"Bacon, Roger; British natural philosopher, optician (c 1214-c 1294)"|-49.2415|20.9187
"Baco S"|"Satellite Feature"|"Bacon, Roger; British natural philosopher, optician (c 1214-c 1294)"|-49.4136|18.4563
"Baco T"|"Satellite Feature"|"Bacon, Roger; British natural philosopher, optician (c 1214-c 1294)"|-53.8734|19.7712
"Baco U"|"Satellite Feature"|"Bacon, Roger; British natural philosopher, optician (c 1214-c 1294)"|-52.4719|19.3047
"Baco W"|"Satellite Feature"|"Bacon, Roger; British natural philosopher, optician (c 1214-c 1294)"|-53.3855|21.1136
"Baco Z"|"Satellite Feature"|"Bacon, Roger; British natural philosopher, optician (c 1214-c 1294)"|-53.1139|14.9599
"Baillaud"|"Crater"|"(Édouard) Benjamin; French astronomer (1848-1934)"|74.6078|37.3517
"Baillaud A"|"Satellite Feature"|"(Édouard) Benjamin; French astronomer (1848-1934)"|75.6052|48.2771
"Baillaud B"|"Satellite Feature"|"(Édouard) Benjamin; French astronomer (1848-1934)"|72.9318|32.9107
"Baillaud C"|"Satellite Feature"|"(Édouard) Benjamin; French astronomer (1848-1934)"|74.9046|50.9144
"Baillaud D"|"Satellite Feature"|"(Édouard) Benjamin; French astronomer (1848-1934)"|73.4111|49.2797
"Baillaud E"|"Satellite Feature"|"(Édouard) Benjamin; French astronomer (1848-1934)"|74.3324|35.9535
"Baillaud F"|"Satellite Feature"|"(Édouard) Benjamin; French astronomer (1848-1934)"|75.6177|53.0248
"Bailly"|"Crater"|"Jean Sylvain; French astronomer (1736-1793)"|-66.8215|-68.8954
"Bailly A"|"Satellite Feature"|"Jean Sylvain; French astronomer (1736-1793)"|-69.2815|-59.5717
"Bailly B"|"Satellite Feature"|"Jean Sylvain; French astronomer (1736-1793)"|-68.7356|-63.2498
"Bailly C"|"Satellite Feature"|"Jean Sylvain; French astronomer (1736-1793)"|-65.7905|-70.3384
"Bailly D"|"Satellite Feature"|"Jean Sylvain; French astronomer (1736-1793)"|-65.2535|-72.3795
"Bailly E"|"Satellite Feature"|"Jean Sylvain; French astronomer (1736-1793)"|-62.4478|-65.7538
"Bailly F"|"Satellite Feature"|"Jean Sylvain; French astronomer (1736-1793)"|-67.4636|-69.5884
"Bailly G"|"Satellite Feature"|"Jean Sylvain; French astronomer (1736-1793)"|-65.6283|-59.471
"Bailly H"|"Satellite Feature"|"Jean Sylvain; French astronomer (1736-1793)"|-63.5723|-62.5892
"Bailly K"|"Satellite Feature"|"Jean Sylvain; French astronomer (1736-1793)"|-62.7302|-76.7109
"Bailly L"|"Satellite Feature"|"Jean Sylvain; French astronomer (1736-1793)"|-60.7144|-71.1327
"Bailly M"|"Satellite Feature"|"Jean Sylvain; French astronomer (1736-1793)"|-61.1623|-67.5088
"Bailly N"|"Satellite Feature"|"Jean Sylvain; French astronomer (1736-1793)"|-60.5271|-63.6803
"Bailly O"|"Satellite Feature"|"Jean Sylvain; French astronomer (1736-1793)"|-69.5866|-56.9211
"Bailly P"|"Satellite Feature"|"Jean Sylvain; French astronomer (1736-1793)"|-59.5733|-60.67
"Bailly R"|"Satellite Feature"|"Jean Sylvain; French astronomer (1736-1793)"|-64.6614|-79.1822
"Bailly T"|"Satellite Feature"|"Jean Sylvain; French astronomer (1736-1793)"|-66.4942|-73.8296
"Bailly U"|"Satellite Feature"|"Jean Sylvain; French astronomer (1736-1793)"|-71.241|-76.0321
"Bailly V"|"Satellite Feature"|"Jean Sylvain; French astronomer (1736-1793)"|-71.9114|-81.4483
"Bailly Y"|"Satellite Feature"|"Jean Sylvain; French astronomer (1736-1793)"|-61.0427|-65.6021
"Bailly Z"|"Satellite Feature"|"Jean Sylvain; French astronomer (1736-1793)"|-60.2171|-65.8574
"Baily"|"Crater"|"Francis; British astronomer (1774-1844)"|49.7798|30.5582
"Baily A"|"Satellite Feature"|"Francis; British astronomer (1774-1844)"|48.706|31.387
"Baily B"|"Satellite Feature"|"Francis; British astronomer (1774-1844)"|51.0014|35.1813
"Baily K"|"Satellite Feature"|"Francis; British astronomer (1774-1844)"|51.5067|30.5277
"Balandin"|"Crater"|"Aleksey Aleksandrovich; Soviet chemist (1898-1967)"|-18.9419|152.584
"Balboa"|"Crater"|"Vasco Nuñez de; Spanish explorer (1475-1519)"|19.2367|-83.308
"Balboa A"|"Satellite Feature"|"Vasco Nuñez de; Spanish explorer (1475-1519)"|17.417|-82.0201
"Balboa B"|"Satellite Feature"|"Vasco Nuñez de; Spanish explorer (1475-1519)"|20.4934|-82.574
"Balboa C"|"Satellite Feature"|"Vasco Nuñez de; Spanish explorer (1475-1519)"|19.5872|-79.1685
"Balboa D"|"Satellite Feature"|"Vasco Nuñez de; Spanish explorer (1475-1519)"|18.2468|-79.7995
"Baldet"|"Crater"|"Fernand; French astronomer (1885-1964)"|-53.3199|-151.96
"Baldet J"|"Satellite Feature"|"Fernand; French astronomer (1885-1964)"|-54.772|-150.246
"Ball"|"Crater"|"William; British astronomer (unkn-1690)"|-35.9228|-8.3942
"Ball A"|"Satellite Feature"|"William; British astronomer (unkn-1690)"|-34.743|-9.3989
"Ball B"|"Satellite Feature"|"William; British astronomer (unkn-1690)"|-36.9209|-9.1943
"Ball C"|"Satellite Feature"|"William; British astronomer (unkn-1690)"|-37.704|-8.7882
"Ball D"|"Satellite Feature"|"William; British astronomer (unkn-1690)"|-35.6206|-10.4169
"Ball E"|"Satellite Feature"|"William; British astronomer (unkn-1690)"|-36.5287|-8.1773
"Ball F"|"Satellite Feature"|"William; British astronomer (unkn-1690)"|-36.9459|-8.4894
"Ball G"|"Satellite Feature"|"William; British astronomer (unkn-1690)"|-37.7244|-10.2167
"Ballet"|"Crater"|"Astronaut-named feature, Apollo 17 site"|20.1745|30.5656
"Balmer"|"Crater"|"Johann Jakob; Swiss mathematician, physician (1825-1898)"|-20.2715|70.2247
"Balmer M"|"Satellite Feature"|"Johann Jakob; Swiss mathematician, physician (1825-1898)"|-20.7623|71.551
"Balmer N"|"Satellite Feature"|"Johann Jakob; Swiss mathematician, physician (1825-1898)"|-19.9151|69.8167
"Balmer P"|"Satellite Feature"|"Johann Jakob; Swiss mathematician, physician (1825-1898)"|-20.4752|67.5758
"Balmer Q"|"Satellite Feature"|"Johann Jakob; Swiss mathematician, physician (1825-1898)"|-18.6906|70.4986
"Balmer R"|"Satellite Feature"|"Johann Jakob; Swiss mathematician, physician (1825-1898)"|-18.7111|69.1368
"Balmer S"|"Satellite Feature"|"Johann Jakob; Swiss mathematician, physician (1825-1898)"|-18.5748|67.6349
"Banachiewicz"|"Crater"|"Tadeusz; Polish astronomer, mathematician (1882-1954)"|5.277|80.0097
"Banachiewicz B"|"Satellite Feature"|"Tadeusz; Polish astronomer, mathematician (1882-1954)"|5.2942|78.9702
"Banachiewicz C"|"Satellite Feature"|"Tadeusz; Polish astronomer, mathematician (1882-1954)"|7.0158|75.3319
"Banachiewicz E"|"Satellite Feature"|"Tadeusz; Polish astronomer, mathematician (1882-1954)"|7.5685|74.7526
"Bancroft"|"Crater"|"Wilder Dwight; American chemist (1867-1953)"|28.0659|-6.4339
"Banting"|"Crater"|"Sir Frederick Grant; Canadian doctor; Nobel laureate (1891-1941)"|26.5814|16.4284
"Barbier"|"Crater"|"Daniel; French astronomer (1907-1965)"|-23.8503|157.934
"Barbier D"|"Satellite Feature"|"Daniel; French astronomer (1907-1965)"|-23.0209|160.171
"Barbier F"|"Satellite Feature"|"Daniel; French astronomer (1907-1965)"|-23.8204|158.205
"Barbier G"|"Satellite Feature"|"Daniel; French astronomer (1907-1965)"|-24.1642|159.855
"Barbier H"|"Satellite Feature"|"Daniel; French astronomer (1907-1965)"|-25.1129|160.48
"Barbier J"|"Satellite Feature"|"Daniel; French astronomer (1907-1965)"|-25.7768|160.229
"Barbier K"|"Satellite Feature"|"Daniel; French astronomer (1907-1965)"|-26.2883|159.202
"Barbier U"|"Satellite Feature"|"Daniel; French astronomer (1907-1965)"|-22.7769|155.177
"Barbier V"|"Satellite Feature"|"Daniel; French astronomer (1907-1965)"|-22.272|154.577
"Barkla"|"Crater"|"Charles Glover; British physicist; Nobel laureate (1877-1944)"|-10.668|67.2187
"Barnard"|"Crater"|"Edward Emerson; American astronomer (1857-1923)"|-29.7883|85.9489
"Barnard A"|"Satellite Feature"|"Edward Emerson; American astronomer (1857-1923)"|-32.1458|85.061
"Barnard D"|"Satellite Feature"|"Edward Emerson; American astronomer (1857-1923)"|-31.3403|89.1739
"Barocius"|"Crater"|"Francesco; Italian mathematician (1537-1604)"|-44.9791|16.8058
"Barocius B"|"Satellite Feature"|"Francesco; Italian mathematician (1537-1604)"|-44.1303|18.2869
"Barocius C"|"Satellite Feature"|"Francesco; Italian mathematician (1537-1604)"|-43.107|17.4776
"Barocius D"|"Satellite Feature"|"Francesco; Italian mathematician (1537-1604)"|-46.0605|19.1809
"Barocius E"|"Satellite Feature"|"Francesco; Italian mathematician (1537-1604)"|-47.2426|22.1482
"Barocius EC"|"Satellite Feature"|"Francesco; Italian mathematician (1537-1604)"|-48.2167|22.4943
"Barocius F"|"Satellite Feature"|"Francesco; Italian mathematician (1537-1604)"|-45.9245|21.6005
"Barocius G"|"Satellite Feature"|"Francesco; Italian mathematician (1537-1604)"|-42.5187|21.0278
"Barocius H"|"Satellite Feature"|"Francesco; Italian mathematician (1537-1604)"|-46.7061|21.6269
"Barocius J"|"Satellite Feature"|"Francesco; Italian mathematician (1537-1604)"|-44.9686|21.4114
"Barocius K"|"Satellite Feature"|"Francesco; Italian mathematician (1537-1604)"|-45.2222|19.629
"Barocius L"|"Satellite Feature"|"Francesco; Italian mathematician (1537-1604)"|-42.4978|18.8112
"Barocius M"|"Satellite Feature"|"Francesco; Italian mathematician (1537-1604)"|-42.4496|19.481
"Barocius N"|"Satellite Feature"|"Francesco; Italian mathematician (1537-1604)"|-43.1972|19.7637
"Barocius O"|"Satellite Feature"|"Francesco; Italian mathematician (1537-1604)"|-45.7498|21.9349
"Barocius R"|"Satellite Feature"|"Francesco; Italian mathematician (1537-1604)"|-43.9102|21.5258
"Barocius S"|"Satellite Feature"|"Francesco; Italian mathematician (1537-1604)"|-42.4985|21.8221
"Barocius W"|"Satellite Feature"|"Francesco; Italian mathematician (1537-1604)"|-45.6799|16.2108
"Barringer"|"Crater"|"Daniel Moreau; American engineer, geologist (1860-1929)"|-28.2181|-150.431
"Barringer C"|"Satellite Feature"|"Daniel Moreau; American engineer, geologist (1860-1929)"|-26.8174|-149.06
"Barringer Z"|"Satellite Feature"|"Daniel Moreau; American engineer, geologist (1860-1929)"|-24.761|-150.241
"Barrow"|"Crater"|"Isaac; British mathematician (1630-1677)"|71.2844|7.586
"Barrow A"|"Satellite Feature"|"Isaac; British mathematician (1630-1677)"|70.561|3.8561
"Barrow B"|"Satellite Feature"|"Isaac; British mathematician (1630-1677)"|70.1583|10.5266
"Barrow C"|"Satellite Feature"|"Isaac; British mathematician (1630-1677)"|73.0245|11.1244
"Barrow E"|"Satellite Feature"|"Isaac; British mathematician (1630-1677)"|69.0014|3.3338
"Barrow F"|"Satellite Feature"|"Isaac; British mathematician (1630-1677)"|69.1573|1.813
"Barrow G"|"Satellite Feature"|"Isaac; British mathematician (1630-1677)"|70.1652|0.2645
"Barrow H"|"Satellite Feature"|"Isaac; British mathematician (1630-1677)"|69.2804|5.9978
"Barrow K"|"Satellite Feature"|"Isaac; British mathematician (1630-1677)"|69.288|11.7446
"Barrow M"|"Satellite Feature"|"Isaac; British mathematician (1630-1677)"|67.6116|9.1364
"Bartels"|"Crater"|"Julius; German geophysicist (1899-1964)"|24.5065|-89.8452
"Bartels A"|"Satellite Feature"|"Julius; German geophysicist (1899-1964)"|25.6966|-89.6014
"Bawa"|"Crater"|"African male name"|-25.277|102.559
"Bayer"|"Crater"|"Johann; German astronomer (1572-1625)"|-51.6207|-35.1447
"Bayer A"|"Satellite Feature"|"Johann; German astronomer (1572-1625)"|-51.3552|-30.4381
"Bayer B"|"Satellite Feature"|"Johann; German astronomer (1572-1625)"|-48.8215|-28.1997
"Bayer C"|"Satellite Feature"|"Johann; German astronomer (1572-1625)"|-49.7656|-31.4164
"Bayer D"|"Satellite Feature"|"Johann; German astronomer (1572-1625)"|-47.9565|-29.8372
"Bayer E"|"Satellite Feature"|"Johann; German astronomer (1572-1625)"|-51.7664|-32.4116
"Bayer F"|"Satellite Feature"|"Johann; German astronomer (1572-1625)"|-53.0316|-31.6786
"Bayer G"|"Satellite Feature"|"Johann; German astronomer (1572-1625)"|-51.7363|-35.4935
"Bayer H"|"Satellite Feature"|"Johann; German astronomer (1572-1625)"|-53.5297|-32.6797
"Bayer J"|"Satellite Feature"|"Johann; German astronomer (1572-1625)"|-52.2625|-33.6181
"Bayer K"|"Satellite Feature"|"Johann; German astronomer (1572-1625)"|-50.2859|-34.0611
"Bayer L"|"Satellite Feature"|"Johann; German astronomer (1572-1625)"|-47.5186|-33.6927
"Bayer M"|"Satellite Feature"|"Johann; German astronomer (1572-1625)"|-50.6876|-31.191
"Bayer N"|"Satellite Feature"|"Johann; German astronomer (1572-1625)"|-48.3309|-29.3724
"Bayer P"|"Satellite Feature"|"Johann; German astronomer (1572-1625)"|-51.7247|-29.676
"Bayer R"|"Satellite Feature"|"Johann; German astronomer (1572-1625)"|-52.4193|-35.6122
"Bayer S"|"Satellite Feature"|"Johann; German astronomer (1572-1625)"|-52.3256|-36.4471
"Bayer T"|"Satellite Feature"|"Johann; German astronomer (1572-1625)"|-49.2527|-30.317
"Bayer U"|"Satellite Feature"|"Johann; German astronomer (1572-1625)"|-48.4009|-31.4012
"Bayer V"|"Satellite Feature"|"Johann; German astronomer (1572-1625)"|-47.557|-31.7588
"Bayer W"|"Satellite Feature"|"Johann; German astronomer (1572-1625)"|-48.0365|-33.4117
"Bayer X"|"Satellite Feature"|"Johann; German astronomer (1572-1625)"|-53.4194|-33.8077
"Bayer Y"|"Satellite Feature"|"Johann; German astronomer (1572-1625)"|-49.2302|-35.869
"Bayer Z"|"Satellite Feature"|"Johann; German astronomer (1572-1625)"|-49.1188|-33.6118
"Beals"|"Crater"|"Carlyle Smith; Canadian astronomer (1899-1979)"|37.109|86.5785
"Bear Mountain"|"Landing site name"|"Astronaut-named feature, Apollo 17 site"|19.9803|30.7729
"Beaumont"|"Crater"|"Jean-Baptiste-Armand-Louis-Léonce Élie de; French geologist (1798-1874)"|-18.0807|28.8229
"Beaumont A"|"Satellite Feature"|"Jean-Baptiste-Armand-Louis-Léonce Élie de; French geologist (1798-1874)"|-16.3124|27.7795
"Beaumont B"|"Satellite Feature"|"Jean-Baptiste-Armand-Louis-Léonce Élie de; French geologist (1798-1874)"|-18.7124|26.8021
"Beaumont C"|"Satellite Feature"|"Jean-Baptiste-Armand-Louis-Léonce Élie de; French geologist (1798-1874)"|-20.2501|27.9333
"Beaumont D"|"Satellite Feature"|"Jean-Baptiste-Armand-Louis-Léonce Élie de; French geologist (1798-1874)"|-17.0861|26.1678
"Beaumont E"|"Satellite Feature"|"Jean-Baptiste-Armand-Louis-Léonce Élie de; French geologist (1798-1874)"|-18.8867|27.4867
"Beaumont F"|"Satellite Feature"|"Jean-Baptiste-Armand-Louis-Léonce Élie de; French geologist (1798-1874)"|-18.3676|26.5934
"Beaumont G"|"Satellite Feature"|"Jean-Baptiste-Armand-Louis-Léonce Élie de; French geologist (1798-1874)"|-20.3732|27.1402
"Beaumont H"|"Satellite Feature"|"Jean-Baptiste-Armand-Louis-Léonce Élie de; French geologist (1798-1874)"|-17.0834|28.5325
"Beaumont J"|"Satellite Feature"|"Jean-Baptiste-Armand-Louis-Léonce Élie de; French geologist (1798-1874)"|-19.9543|26.5034
"Beaumont K"|"Satellite Feature"|"Jean-Baptiste-Armand-Louis-Léonce Élie de; French geologist (1798-1874)"|-17.5235|30.0652
"Beaumont L"|"Satellite Feature"|"Jean-Baptiste-Armand-Louis-Léonce Élie de; French geologist (1798-1874)"|-14.4595|30.02
"Beaumont M"|"Satellite Feature"|"Jean-Baptiste-Armand-Louis-Léonce Élie de; French geologist (1798-1874)"|-19.4315|28.6252
"Beaumont N"|"Satellite Feature"|"Jean-Baptiste-Armand-Louis-Léonce Élie de; French geologist (1798-1874)"|-16.9634|27.7741
"Beaumont P"|"Satellite Feature"|"Jean-Baptiste-Armand-Louis-Léonce Élie de; French geologist (1798-1874)"|-19.9243|29.5939
"Beaumont R"|"Satellite Feature"|"Jean-Baptiste-Armand-Louis-Léonce Élie de; French geologist (1798-1874)"|-17.9428|30.7167
"Becquerel"|"Crater"|"Antoine-Henri; French physicist; Nobel laureate (1852-1908)"|40.7945|129.501
"Becquerel E"|"Satellite Feature"|"Antoine-Henri; French physicist; Nobel laureate (1852-1908)"|40.9534|131.45
"Becquerel F"|"Satellite Feature"|"Antoine-Henri; French physicist; Nobel laureate (1852-1908)"|40.8439|132.846
"Becquerel W"|"Satellite Feature"|"Antoine-Henri; French physicist; Nobel laureate (1852-1908)"|42.0534|127.068
"Becquerel X"|"Satellite Feature"|"Antoine-Henri; French physicist; Nobel laureate (1852-1908)"|42.0184|128.215
"Becvar"|"Crater"|"Antonin; Czechoslovakian astronomer (1901-1965)"|-2.574|125.073
"Becvar D"|"Satellite Feature"|"Antonin; Czechoslovakian astronomer (1901-1965)"|-1.8056|127.41
"Becvar E"|"Satellite Feature"|"Antonin; Czechoslovakian astronomer (1901-1965)"|-1.9817|127.909
"Becvar J"|"Satellite Feature"|"Antonin; Czechoslovakian astronomer (1901-1965)"|-3.8356|126.8
"Becvar Q"|"Satellite Feature"|"Antonin; Czechoslovakian astronomer (1901-1965)"|-3.1454|124.311
"Becvar S"|"Satellite Feature"|"Antonin; Czechoslovakian astronomer (1901-1965)"|-3.3016|121.404
"Becvar T"|"Satellite Feature"|"Antonin; Czechoslovakian astronomer (1901-1965)"|-2.12|122.104
"Becvar X"|"Satellite Feature"|"Antonin; Czechoslovakian astronomer (1901-1965)"|-1.0041|124.468
"Beer"|"Crater"|"Wilhelm; German astronomer (1797-1850)"|27.0746|-9.1017
"Beer A"|"Satellite Feature"|"Wilhelm; German astronomer (1797-1850)"|27.2721|-8.617
"Beer B"|"Satellite Feature"|"Wilhelm; German astronomer (1797-1850)"|25.6796|-9.0462
"Beer E"|"Satellite Feature"|"Wilhelm; German astronomer (1797-1850)"|27.8362|-7.847
"Behaim"|"Crater"|"Martin; German navigator, cartographer (1459-1507)"|-16.6056|79.4051
"Behaim B"|"Satellite Feature"|"Martin; German navigator, cartographer (1459-1507)"|-16.1043|76.515
"Behaim BA"|"Satellite Feature"|"Martin; German navigator, cartographer (1459-1507)"|-16.3969|76.0697
"Behaim C"|"Satellite Feature"|"Martin; German navigator, cartographer (1459-1507)"|-16.708|77.4825
"Behaim N"|"Satellite Feature"|"Martin; German navigator, cartographer (1459-1507)"|-16.1138|73.5545
"Behaim S"|"Satellite Feature"|"Martin; German navigator, cartographer (1459-1507)"|-16.3301|81.4446
"Behaim T"|"Satellite Feature"|"Martin; German navigator, cartographer (1459-1507)"|-15.8983|81.411
"Beijerinck"|"Crater"|"Martinus Willem; Dutch botanist (1851-1931)"|-13.4016|151.838
"Beijerinck C"|"Satellite Feature"|"Martinus Willem; Dutch botanist (1851-1931)"|-10.8437|153.833
"Beijerinck D"|"Satellite Feature"|"Martinus Willem; Dutch botanist (1851-1931)"|-12.6723|153.198
"Beijerinck H"|"Satellite Feature"|"Martinus Willem; Dutch botanist (1851-1931)"|-14.0222|153.42
"Beijerinck J"|"Satellite Feature"|"Martinus Willem; Dutch botanist (1851-1931)"|-14.6833|153.851
"Beijerinck R"|"Satellite Feature"|"Martinus Willem; Dutch botanist (1851-1931)"|-14.5011|149.354
"Beijerinck S"|"Satellite Feature"|"Martinus Willem; Dutch botanist (1851-1931)"|-13.9969|147.297
"Beijerinck U"|"Satellite Feature"|"Martinus Willem; Dutch botanist (1851-1931)"|-12.3126|149.171
"Beijerinck V"|"Satellite Feature"|"Martinus Willem; Dutch botanist (1851-1931)"|-12.6722|150.259
"Beketov"|"Crater"|"Nikolai Nikolaevich; Russian chemist (1827-1911)"|16.2309|29.1769
"Bel kovich A"|"Satellite Feature"|"Igor V; Soviet astronomer (1904-1949)"|58.6534|87.4138
"Bel kovich B"|"Satellite Feature"|"Igor V; Soviet astronomer (1904-1949)"|58.886|85.7132
"Bel kovich K"|"Satellite Feature"|"Igor V; Soviet astronomer (1904-1949)"|63.6315|93.6116
"Bela"|"Crater"|"Hungarian male name, also Slovak female name"|24.665|2.2693
"Belkovich"|"Crater"|"Igor V; Soviet astronomer (1904-1949)"|61.5278|90.147
"Bell"|"Crater"|"Alexander Graham; Scottish-American inventor (1847-1922)"|21.9782|-96.5318
"Bell E"|"Satellite Feature"|"Alexander Graham; Scottish-American inventor (1847-1922)"|22.0598|-95.9419
"Bell J"|"Satellite Feature"|"Alexander Graham; Scottish-American inventor (1847-1922)"|19.8807|-94.1156
"Bell K"|"Satellite Feature"|"Alexander Graham; Scottish-American inventor (1847-1922)"|18.3416|-95.17
"Bell L"|"Satellite Feature"|"Alexander Graham; Scottish-American inventor (1847-1922)"|19.7109|-95.9449
"Bell N"|"Satellite Feature"|"Alexander Graham; Scottish-American inventor (1847-1922)"|19.4337|-96.9658
"Bell Q"|"Satellite Feature"|"Alexander Graham; Scottish-American inventor (1847-1922)"|20.744|-97.2562
"Bell T"|"Satellite Feature"|"Alexander Graham; Scottish-American inventor (1847-1922)"|21.9091|-99.0392
"Bell Y"|"Satellite Feature"|"Alexander Graham; Scottish-American inventor (1847-1922)"|25.409|-96.8425
"Bellinsgauzen Bellingshausen"|"Crater"|"Faddei Faddeevich; Russian explorer (1778-1852)"|-60.7163|-164.849
"Bellot"|"Crater"|"Joseph Rene; French explorer (1826-1853)"|-12.476|48.1945
"Bellot A"|"Satellite Feature"|"Joseph Rene; French explorer (1826-1853)"|-13.1914|47.6216
"Bellot B"|"Satellite Feature"|"Joseph Rene; French explorer (1826-1853)"|-13.5526|47.7187
"Belopol skiy"|"Crater"|"Aristarch Apollonovich; Russian astronomer (1854-1934)"|-17.2508|-128.234
"Belyaev"|"Crater"|"Pavel Ivanovich; Soviet cosmonaut (1925-1970)"|23.0964|143.111
"Belyaev Q"|"Satellite Feature"|"Pavel Ivanovich; Soviet cosmonaut (1925-1970)"|20.6529|139.715
"Bench"|"Landing site name"|"Astronaut-named feature, Apollo 12 site"|-3.0198|-23.4298
"Benedict"|"Crater"|"Francis Gano; American chemist, physiologist (1870-1957)"|4.3492|141.536
"Bergman"|"Crater"|"Torbern Olof; Swedish chemist, mineralogist, astronomer (1735-1784)"|6.9731|137.49
"Bergstrand"|"Crater"|"Carl Östen Emanuel; Swedish astronomer (1873-1948)"|-18.7246|176.44
"Bergstrand G"|"Satellite Feature"|"Carl Östen Emanuel; Swedish astronomer (1873-1948)"|-19.8629|179.28
"Bergstrand J"|"Satellite Feature"|"Carl Östen Emanuel; Swedish astronomer (1873-1948)"|-20.2306|178.029
"Bergstrand Q"|"Satellite Feature"|"Carl Östen Emanuel; Swedish astronomer (1873-1948)"|-19.9424|175.193
"Berkner"|"Crater"|"Lloyd Viel; American geophysicist (1905-1967)"|25.1259|-105.236
"Berkner A"|"Satellite Feature"|"Lloyd Viel; American geophysicist (1905-1967)"|27.6226|-104.908
"Berkner B"|"Satellite Feature"|"Lloyd Viel; American geophysicist (1905-1967)"|29.4368|-104.237
"Berkner Y"|"Satellite Feature"|"Lloyd Viel; American geophysicist (1905-1967)"|27.7606|-106.323
"Berlage"|"Crater"|"Hendrik Petrus; Dutch geophysicist, meteorologist (1896-1968)"|-63.0414|-163.608
"Berlage R"|"Satellite Feature"|"Hendrik Petrus; Dutch geophysicist, meteorologist (1896-1968)"|-64.0942|-167.525
"Bernoulli"|"Crater"|"Jacques; Swiss mathematician (1654-1705); Jean; Swiss mathematician (1667-1748) (Spelling changed from Bernouilli)"|34.9295|60.6124
"Bernoulli A"|"Satellite Feature"|"Jacques; Swiss mathematician (1654-1705); Jean; Swiss mathematician (1667-1748) (Spelling changed from Bernouilli)"|36.4134|60.8788
"Bernoulli B"|"Satellite Feature"|"Jacques; Swiss mathematician (1654-1705); Jean; Swiss mathematician (1667-1748) (Spelling changed from Bernouilli)"|36.8385|65.5116
"Bernoulli C"|"Satellite Feature"|"Jacques; Swiss mathematician (1654-1705); Jean; Swiss mathematician (1667-1748) (Spelling changed from Bernouilli)"|35.3814|67.1877
"Bernoulli D"|"Satellite Feature"|"Jacques; Swiss mathematician (1654-1705); Jean; Swiss mathematician (1667-1748) (Spelling changed from Bernouilli)"|35.7923|66.5035
"Bernoulli E"|"Satellite Feature"|"Jacques; Swiss mathematician (1654-1705); Jean; Swiss mathematician (1667-1748) (Spelling changed from Bernouilli)"|35.3186|62.8557
"Bernoulli K"|"Satellite Feature"|"Jacques; Swiss mathematician (1654-1705); Jean; Swiss mathematician (1667-1748) (Spelling changed from Bernouilli)"|36.5379|63.3968
"Berosus"|"Crater"|"Berosus the Chaldean; Babylonian astronomer (unkn-c 250 BC)"|33.4956|69.9922
"Berosus A"|"Satellite Feature"|"Berosus the Chaldean; Babylonian astronomer (unkn-c 250 BC)"|33.1402|68.0849
"Berosus F"|"Satellite Feature"|"Berosus the Chaldean; Babylonian astronomer (unkn-c 250 BC)"|33.9994|66.53
"Berosus K"|"Satellite Feature"|"Berosus the Chaldean; Babylonian astronomer (unkn-c 250 BC)"|32.187|70.8872
"Berzelius"|"Crater"|"Jöns Jacob; Swedish chemist (1779-1848)"|36.5518|50.9548
"Berzelius A"|"Satellite Feature"|"Jöns Jacob; Swedish chemist (1779-1848)"|36.7355|48.8666
"Berzelius B"|"Satellite Feature"|"Jöns Jacob; Swedish chemist (1779-1848)"|32.3145|43.0983
"Berzelius F"|"Satellite Feature"|"Jöns Jacob; Swedish chemist (1779-1848)"|32.8456|46.0229
"Berzelius K"|"Satellite Feature"|"Jöns Jacob; Swedish chemist (1779-1848)"|35.5695|47.0332
"Berzelius T"|"Satellite Feature"|"Jöns Jacob; Swedish chemist (1779-1848)"|36.2488|47.9567
"Berzelius W"|"Satellite Feature"|"Jöns Jacob; Swedish chemist (1779-1848)"|38.1366|53.1028
"Bessarion"|"Crater"|"John; Greek scholar (1403-1472)"|14.851|-37.3075
"Bessarion A"|"Satellite Feature"|"John; Greek scholar (1403-1472)"|17.0741|-39.8298
"Bessarion B"|"Satellite Feature"|"John; Greek scholar (1403-1472)"|16.8335|-41.7192
"Bessarion C"|"Satellite Feature"|"John; Greek scholar (1403-1472)"|16.03|-42.6355
"Bessarion D"|"Satellite Feature"|"John; Greek scholar (1403-1472)"|19.7735|-41.7347
"Bessarion E"|"Satellite Feature"|"John; Greek scholar (1403-1472)"|15.3741|-37.3513
"Bessarion G"|"Satellite Feature"|"John; Greek scholar (1403-1472)"|14.9005|-40.3617
"Bessarion H"|"Satellite Feature"|"John; Greek scholar (1403-1472)"|15.2608|-41.4812
"Bessarion V"|"Satellite Feature"|"John; Greek scholar (1403-1472)"|15.0624|-34.9829
"Bessarion W"|"Satellite Feature"|"John; Greek scholar (1403-1472)"|16.6997|-36.9442
"Bessel"|"Crater"|"Friedrich Wilhelm; German astronomer (1784-1846)"|21.7342|17.9204
"Bessel D"|"Satellite Feature"|"Friedrich Wilhelm; German astronomer (1784-1846)"|27.3378|19.8591
"Bessel F"|"Satellite Feature"|"Friedrich Wilhelm; German astronomer (1784-1846)"|21.2604|13.8405
"Bessel G"|"Satellite Feature"|"Friedrich Wilhelm; German astronomer (1784-1846)"|21.1442|14.7354
"Bessel H"|"Satellite Feature"|"Friedrich Wilhelm; German astronomer (1784-1846)"|25.6924|19.9966
"Bettinus"|"Crater"|"Mario; Italian mathematician, astronomer (1582-1657)"|-63.3969|-45.1602
"Bettinus A"|"Satellite Feature"|"Mario; Italian mathematician, astronomer (1582-1657)"|-64.877|-49.0274
"Bettinus B"|"Satellite Feature"|"Mario; Italian mathematician, astronomer (1582-1657)"|-63.5413|-51.3132
"Bettinus C"|"Satellite Feature"|"Mario; Italian mathematician, astronomer (1582-1657)"|-63.3321|-38.0901
"Bettinus D"|"Satellite Feature"|"Mario; Italian mathematician, astronomer (1582-1657)"|-64.9951|-46.6136
"Bettinus E"|"Satellite Feature"|"Mario; Italian mathematician, astronomer (1582-1657)"|-63.2117|-42.3842
"Bettinus F"|"Satellite Feature"|"Mario; Italian mathematician, astronomer (1582-1657)"|-62.9681|-44.0166
"Bettinus G"|"Satellite Feature"|"Mario; Italian mathematician, astronomer (1582-1657)"|-61.6045|-44.7357
"Bettinus H"|"Satellite Feature"|"Mario; Italian mathematician, astronomer (1582-1657)"|-64.6203|-43.8194
"Bhabha"|"Crater"|"Homi Jehangir; Indian physicist (1909-1966)"|-55.4971|-165.312
"Bi Sheng"|"Crater"|"Chinese inventor (c 990-1051)"|78.345|148.459
"Bianchini"|"Crater"|"Francesco; Italian astronomer (1662-1729)"|48.7814|-34.3739
"Bianchini D"|"Satellite Feature"|"Francesco; Italian astronomer (1662-1729)"|47.5549|-35.6967
"Bianchini G"|"Satellite Feature"|"Francesco; Italian astronomer (1662-1729)"|46.6968|-32.7853
"Bianchini H"|"Satellite Feature"|"Francesco; Italian astronomer (1662-1729)"|48.0817|-32.8576
"Bianchini M"|"Satellite Feature"|"Francesco; Italian astronomer (1662-1729)"|48.3742|-30.671
"Bianchini N"|"Satellite Feature"|"Francesco; Italian astronomer (1662-1729)"|48.545|-31.0697
"Bianchini W"|"Satellite Feature"|"Francesco; Italian astronomer (1662-1729)"|48.5473|-33.8087
"Biela"|"Crater"|"Wilhelm von; Austrian astronomer (1782-1856)"|-54.9915|51.6285
"Biela A"|"Satellite Feature"|"Wilhelm von; Austrian astronomer (1782-1856)"|-52.9358|53.3881
"Biela B"|"Satellite Feature"|"Wilhelm von; Austrian astronomer (1782-1856)"|-56.7246|50.0263
"Biela C"|"Satellite Feature"|"Wilhelm von; Austrian astronomer (1782-1856)"|-54.2834|53.4971
"Biela D"|"Satellite Feature"|"Wilhelm von; Austrian astronomer (1782-1856)"|-55.8896|56.4122
"Biela E"|"Satellite Feature"|"Wilhelm von; Austrian astronomer (1782-1856)"|-56.608|56.5764
"Biela F"|"Satellite Feature"|"Wilhelm von; Austrian astronomer (1782-1856)"|-56.5211|54.8524
"Biela G"|"Satellite Feature"|"Wilhelm von; Austrian astronomer (1782-1856)"|-56.3814|54.0854
"Biela H"|"Satellite Feature"|"Wilhelm von; Austrian astronomer (1782-1856)"|-58.0197|54.3989
"Biela J"|"Satellite Feature"|"Wilhelm von; Austrian astronomer (1782-1856)"|-57.0741|52.8918
"Biela T"|"Satellite Feature"|"Wilhelm von; Austrian astronomer (1782-1856)"|-53.9229|49.9156
"Biela U"|"Satellite Feature"|"Wilhelm von; Austrian astronomer (1782-1856)"|-53.6581|49.3061
"Biela V"|"Satellite Feature"|"Wilhelm von; Austrian astronomer (1782-1856)"|-53.7307|48.4525
"Biela W"|"Satellite Feature"|"Wilhelm von; Austrian astronomer (1782-1856)"|-55.3103|49.8724
"Biela Y"|"Satellite Feature"|"Wilhelm von; Austrian astronomer (1782-1856)"|-54.9742|58.0066
"Biela Z"|"Satellite Feature"|"Wilhelm von; Austrian astronomer (1782-1856)"|-53.8956|57.0042
"Bilharz"|"Crater"|"Theodor; German doctor, zoologist (1825-1862)"|-5.8278|56.3438
"Billy"|"Crater"|"Jacques de; French mathematician (1602-1679)"|-13.8324|-50.2382
"Billy A"|"Satellite Feature"|"Jacques de; French mathematician (1602-1679)"|-14.3351|-46.336
"Billy B"|"Satellite Feature"|"Jacques de; French mathematician (1602-1679)"|-12.2002|-47.6717
"Billy C"|"Satellite Feature"|"Jacques de; French mathematician (1602-1679)"|-16.0783|-49.1445
"Billy D"|"Satellite Feature"|"Jacques de; French mathematician (1602-1679)"|-14.8562|-48.3934
"Billy E"|"Satellite Feature"|"Jacques de; French mathematician (1602-1679)"|-14.9722|-49.8129
"Billy H"|"Satellite Feature"|"Jacques de; French mathematician (1602-1679)"|-15.6541|-49.8426
"Billy K"|"Satellite Feature"|"Jacques de; French mathematician (1602-1679)"|-12.9692|-48.857
"Bingham"|"Crater"|"Hiram; American explorer (1875-1956)"|8.0163|115.054
"Bingham H"|"Satellite Feature"|"Hiram; American explorer (1875-1956)"|7.463|116.223
"Biot"|"Crater"|"Jean-Baptiste; French astronomer (1774-1862)"|-22.7003|51.0798
"Biot A"|"Satellite Feature"|"Jean-Baptiste; French astronomer (1774-1862)"|-22.2177|48.8346
"Biot B"|"Satellite Feature"|"Jean-Baptiste; French astronomer (1774-1862)"|-20.4333|49.5773
"Biot C"|"Satellite Feature"|"Jean-Baptiste; French astronomer (1774-1862)"|-22.1099|51.1447
"Biot D"|"Satellite Feature"|"Jean-Baptiste; French astronomer (1774-1862)"|-24.3414|50.3466
"Biot E"|"Satellite Feature"|"Jean-Baptiste; French astronomer (1774-1862)"|-24.7668|50.8701
"Biot T"|"Satellite Feature"|"Jean-Baptiste; French astronomer (1774-1862)"|-21.4491|49.8018
"Birkeland"|"Crater"|"Olaf Kristian; Norwegian physicist (1867-1917)"|-30.1661|174.01
"Birkeland M"|"Satellite Feature"|"Olaf Kristian; Norwegian physicist (1867-1917)"|-32.2856|174.298
"Birkhoff"|"Crater"|"George David; American mathematician (1884-1944)"|58.4541|-145.652
"Birkhoff K"|"Satellite Feature"|"George David; American mathematician (1884-1944)"|57.399|-144.814
"Birkhoff L"|"Satellite Feature"|"George David; American mathematician (1884-1944)"|56.3389|-145.343
"Birkhoff M"|"Satellite Feature"|"George David; American mathematician (1884-1944)"|54.5016|-145.062
"Birkhoff Q"|"Satellite Feature"|"George David; American mathematician (1884-1944)"|56.1884|-151.067
"Birkhoff R"|"Satellite Feature"|"George David; American mathematician (1884-1944)"|57.2818|-153.408
"Birkhoff X"|"Satellite Feature"|"George David; American mathematician (1884-1944)"|61.6214|-150.416
"Birkhoff Y"|"Satellite Feature"|"George David; American mathematician (1884-1944)"|59.5|-146.975
"Birkhoff Z"|"Satellite Feature"|"George David; American mathematician (1884-1944)"|60.9774|-145.879
"Birmingham"|"Crater"|"John; Irish astronomer (1816-1884)"|65.1238|-10.6979
"Birmingham B"|"Satellite Feature"|"John; Irish astronomer (1816-1884)"|63.5237|-11.2439
"Birmingham G"|"Satellite Feature"|"John; Irish astronomer (1816-1884)"|64.5828|-10.2331
"Birmingham H"|"Satellite Feature"|"John; Irish astronomer (1816-1884)"|64.4617|-10.6401
"Birmingham K"|"Satellite Feature"|"John; Irish astronomer (1816-1884)"|65.0466|-13.1697
"Birt"|"Crater"|"William R; British selenographer (1804-1881)"|-22.3636|-8.5923
"Birt A"|"Satellite Feature"|"William R; British selenographer (1804-1881)"|-22.4912|-8.2368
"Birt B"|"Satellite Feature"|"William R; British selenographer (1804-1881)"|-22.2904|-10.2657
"Birt C"|"Satellite Feature"|"William R; British selenographer (1804-1881)"|-23.6903|-8.3667
"Birt D"|"Satellite Feature"|"William R; British selenographer (1804-1881)"|-21.0785|-9.8783
"Birt E"|"Satellite Feature"|"William R; British selenographer (1804-1881)"|-20.7221|-9.6623
"Birt F"|"Satellite Feature"|"William R; British selenographer (1804-1881)"|-22.3439|-9.1462
"Birt G"|"Satellite Feature"|"William R; British selenographer (1804-1881)"|-23.1874|-8.2802
"Birt H"|"Satellite Feature"|"William R; British selenographer (1804-1881)"|-23.0652|-9.1452
"Birt J"|"Satellite Feature"|"William R; British selenographer (1804-1881)"|-23.0013|-9.5032
"Birt K"|"Satellite Feature"|"William R; British selenographer (1804-1881)"|-22.4043|-9.6905
"Birt L"|"Satellite Feature"|"William R; British selenographer (1804-1881)"|-21.6629|-9.3608
"Bjerknes"|"Crater"|"Vilhelm Friman Koren; Norwegian physicist (1862-1951)"|-38.4952|113.689
"Bjerknes A"|"Satellite Feature"|"Vilhelm Friman Koren; Norwegian physicist (1862-1951)"|-36.1817|114.266
"Bjerknes B"|"Satellite Feature"|"Vilhelm Friman Koren; Norwegian physicist (1862-1951)"|-37.4229|114.478
"Bjerknes E"|"Satellite Feature"|"Vilhelm Friman Koren; Norwegian physicist (1862-1951)"|-38.2636|115.614
"Black"|"Crater"|"Joseph; French chemist (1728-1799)"|-9.1959|80.3949
"Blackett"|"Crater"|"Patrick Maynard Stuart; British physicist; Nobel laureate (1897-1974)"|-37.5493|-115.836
"Blackett N"|"Satellite Feature"|"Patrick Maynard Stuart; British physicist; Nobel laureate (1897-1974)"|-40.0897|-116.212
"Blagg"|"Crater"|"Mary Adela; British astronomer (1858-1944)"|1.2189|1.4639
"Blancanus"|"Crater"|"Biancani, Giuseppe; Italian mathematician, astronomer (1566-1624)"|-63.7697|-21.6299
"Blancanus A"|"Satellite Feature"|"Biancani, Giuseppe; Italian mathematician, astronomer (1566-1624)"|-64.7182|-22.1503
"Blancanus C"|"Satellite Feature"|"Biancani, Giuseppe; Italian mathematician, astronomer (1566-1624)"|-66.6025|-28.2205
"Blancanus D"|"Satellite Feature"|"Biancani, Giuseppe; Italian mathematician, astronomer (1566-1624)"|-63.2208|-16.6461
"Blancanus E"|"Satellite Feature"|"Biancani, Giuseppe; Italian mathematician, astronomer (1566-1624)"|-66.6828|-21.8298
"Blancanus F"|"Satellite Feature"|"Biancani, Giuseppe; Italian mathematician, astronomer (1566-1624)"|-65.1888|-27.4988
"Blancanus G"|"Satellite Feature"|"Biancani, Giuseppe; Italian mathematician, astronomer (1566-1624)"|-63.134|-25.1891
"Blancanus H"|"Satellite Feature"|"Biancani, Giuseppe; Italian mathematician, astronomer (1566-1624)"|-65.6053|-23.5896
"Blancanus K"|"Satellite Feature"|"Biancani, Giuseppe; Italian mathematician, astronomer (1566-1624)"|-60.5288|-23.3582
"Blancanus N"|"Satellite Feature"|"Biancani, Giuseppe; Italian mathematician, astronomer (1566-1624)"|-63.2617|-25.8587
"Blancanus V"|"Satellite Feature"|"Biancani, Giuseppe; Italian mathematician, astronomer (1566-1624)"|-64.3381|-21.426
"Blancanus W"|"Satellite Feature"|"Biancani, Giuseppe; Italian mathematician, astronomer (1566-1624)"|-60.9623|-20.3341
"Blanchard"|"Crater"|"Jean-Pierre-François; French aeronaut (1753-1809)"|-58.248|-93.4958
"Blanchinus"|"Crater"|"Bianchini, Giovanni; Italian astronomer (unkn-fl 1458)"|-25.3156|2.4439
"Blanchinus B"|"Satellite Feature"|"Bianchini, Giovanni; Italian astronomer (unkn-fl 1458)"|-25.235|1.5477
"Blanchinus D"|"Satellite Feature"|"Bianchini, Giovanni; Italian astronomer (unkn-fl 1458)"|-25.0306|4.1704
"Blanchinus K"|"Satellite Feature"|"Bianchini, Giovanni; Italian astronomer (unkn-fl 1458)"|-24.8068|4.9939
"Blanchinus M"|"Satellite Feature"|"Bianchini, Giovanni; Italian astronomer (unkn-fl 1458)"|-25.2202|2.5778
"Blazhko"|"Crater"|"Sergei Nikolaevich; Soviet astronomer (1870-1956)"|31.3685|-147.863
"Blazhko D"|"Satellite Feature"|"Sergei Nikolaevich; Soviet astronomer (1870-1956)"|32.7901|-145.452
"Blazhko F"|"Satellite Feature"|"Sergei Nikolaevich; Soviet astronomer (1870-1956)"|31.1981|-146.385
"Blazhko L"|"Satellite Feature"|"Sergei Nikolaevich; Soviet astronomer (1870-1956)"|29.1538|-147.391
"Blazhko R"|"Satellite Feature"|"Sergei Nikolaevich; Soviet astronomer (1870-1956)"|29.8218|-150.005
"Bliss"|"Crater"|"Nathaniel; English Astronomer Royal (1700-1764)"|53.0433|-13.7793
"Block"|"Landing site name"|"Astronaut-named feature, Apollo 12 site"|-3.0134|-23.4182
"Bobillier"|"Crater"|"Étienne; French geometer (1798-1840)"|19.6311|15.4354
"Bobone"|"Crater"|"Jorge; Argentinean astronomer (1901-1958)"|26.7014|-132.117
"Bode"|"Crater"|"Johann Elert; German astronomer (1747-1826)"|6.7101|-2.4521
"Bode A"|"Satellite Feature"|"Johann Elert; German astronomer (1747-1826)"|8.9966|-1.1776
"Bode B"|"Satellite Feature"|"Johann Elert; German astronomer (1747-1826)"|8.7362|-3.0843
"Bode C"|"Satellite Feature"|"Johann Elert; German astronomer (1747-1826)"|12.2287|-4.7692
"Bode D"|"Satellite Feature"|"Johann Elert; German astronomer (1747-1826)"|7.2741|-3.3239
"Bode E"|"Satellite Feature"|"Johann Elert; German astronomer (1747-1826)"|12.4152|-3.4454
"Bode G"|"Satellite Feature"|"Johann Elert; German astronomer (1747-1826)"|6.34|-3.561
"Bode H"|"Satellite Feature"|"Johann Elert; German astronomer (1747-1826)"|12.2112|-6.5298
"Bode K"|"Satellite Feature"|"Johann Elert; German astronomer (1747-1826)"|9.3013|-2.2841
"Bode L"|"Satellite Feature"|"Johann Elert; German astronomer (1747-1826)"|5.6215|-3.8106
"Bode N"|"Satellite Feature"|"Johann Elert; German astronomer (1747-1826)"|10.9741|-3.8845
"Boethius"|"Crater"|"Anicius Manlius Severinus; Roman scholar(c AD 470-524)"|5.569|72.334
"Boguslawsky"|"Crater"|"Palm Heinrich Ludwig von; German astronomer (1789-1851)"|-72.9012|43.2572
"Boguslawsky A"|"Satellite Feature"|"Palm Heinrich Ludwig von; German astronomer (1789-1851)"|-74.4052|43.5668
"Boguslawsky B"|"Satellite Feature"|"Palm Heinrich Ludwig von; German astronomer (1789-1851)"|-73.9758|61.1179
"Boguslawsky C"|"Satellite Feature"|"Palm Heinrich Ludwig von; German astronomer (1789-1851)"|-70.9939|27.698
"Boguslawsky D"|"Satellite Feature"|"Palm Heinrich Ludwig von; German astronomer (1789-1851)"|-72.8644|47.4069
"Boguslawsky E"|"Satellite Feature"|"Palm Heinrich Ludwig von; German astronomer (1789-1851)"|-74.3111|54.3255
"Boguslawsky F"|"Satellite Feature"|"Palm Heinrich Ludwig von; German astronomer (1789-1851)"|-75.4198|52.972
"Boguslawsky G"|"Satellite Feature"|"Palm Heinrich Ludwig von; German astronomer (1789-1851)"|-71.4817|34.3456
"Boguslawsky H"|"Satellite Feature"|"Palm Heinrich Ludwig von; German astronomer (1789-1851)"|-72.82|29.0593
"Boguslawsky J"|"Satellite Feature"|"Palm Heinrich Ludwig von; German astronomer (1789-1851)"|-72.0871|28.4015
"Boguslawsky K"|"Satellite Feature"|"Palm Heinrich Ludwig von; German astronomer (1789-1851)"|-73.4663|50.3533
"Boguslawsky L"|"Satellite Feature"|"Palm Heinrich Ludwig von; German astronomer (1789-1851)"|-70.6761|36.4664
"Boguslawsky M"|"Satellite Feature"|"Palm Heinrich Ludwig von; German astronomer (1789-1851)"|-70.452|34.8423
"Boguslawsky N"|"Satellite Feature"|"Palm Heinrich Ludwig von; German astronomer (1789-1851)"|-73.8624|32.88
"Bohnenberger"|"Crater"|"Johann Gottlieb Friedrich Von; German astronomer (1765-1831)"|-16.2377|40.0556
"Bohnenberger A"|"Satellite Feature"|"Johann Gottlieb Friedrich Von; German astronomer (1765-1831)"|-17.825|40.171
"Bohnenberger C"|"Satellite Feature"|"Johann Gottlieb Friedrich Von; German astronomer (1765-1831)"|-18.6687|41.0974
"Bohnenberger D"|"Satellite Feature"|"Johann Gottlieb Friedrich Von; German astronomer (1765-1831)"|-18.3944|42.6333
"Bohnenberger E"|"Satellite Feature"|"Johann Gottlieb Friedrich Von; German astronomer (1765-1831)"|-17.4069|42.0671
"Bohnenberger F"|"Satellite Feature"|"Johann Gottlieb Friedrich Von; German astronomer (1765-1831)"|-14.7087|39.6767
"Bohnenberger G"|"Satellite Feature"|"Johann Gottlieb Friedrich Von; German astronomer (1765-1831)"|-17.2268|40.1292
"Bohnenberger J"|"Satellite Feature"|"Johann Gottlieb Friedrich Von; German astronomer (1765-1831)"|-14.8985|40.3864
"Bohnenberger N"|"Satellite Feature"|"Johann Gottlieb Friedrich Von; German astronomer (1765-1831)"|-17.9453|41.8871
"Bohnenberger P"|"Satellite Feature"|"Johann Gottlieb Friedrich Von; German astronomer (1765-1831)"|-19.2453|41.4729
"Bohnenberger W"|"Satellite Feature"|"Johann Gottlieb Friedrich Von; German astronomer (1765-1831)"|-18.249|41.0968
"Bohr"|"Crater"|"Niels Henrik David; Danish physicist; Nobel laureate (1885-1962)"|12.7063|-86.5241
"Bok"|"Crater"|"Priscilla Fairfield; American astronomer (1896-1975), Bart Jan; Dutch-American astronomer (1906-1983)"|-20.2596|-171.583
"Bok C"|"Satellite Feature"|"Priscilla Fairfield; American astronomer (1896-1975), Bart Jan; Dutch-American astronomer (1906-1983)"|-19.0747|-170.253
"Boltzmann"|"Crater"|"Ludwig Eduard; Austrian physicist (1844-1906)"|-74.8229|-90.4069
"Bolyai"|"Crater"|"Janos; Hungarian mathematician (1802-1860)"|-33.8519|126.121
"Bolyai D"|"Satellite Feature"|"Janos; Hungarian mathematician (1802-1860)"|-32.6048|128.447
"Bolyai K"|"Satellite Feature"|"Janos; Hungarian mathematician (1802-1860)"|-36.6582|127.23
"Bolyai L"|"Satellite Feature"|"Janos; Hungarian mathematician (1802-1860)"|-36.4828|126.662
"Bolyai Q"|"Satellite Feature"|"Janos; Hungarian mathematician (1802-1860)"|-36.2936|123.043
"Bolyai W"|"Satellite Feature"|"Janos; Hungarian mathematician (1802-1860)"|-32.0476|124.416
"Bombelli"|"Crater"|"Rafael; Italian mathematician (1526-1572)"|5.28|56.1869
"Bondarenko"|"Crater"|"Valentin Vasilyevich; Soviet student-cosmonaut (1937-1961)"|-17.2443|136.89
"Bonpland"|"Crater"|"Aimé-Jacques-Alexandre; French botanist (1773-1858)"|-8.3755|-17.3341
"Bonpland C"|"Satellite Feature"|"Aimé-Jacques-Alexandre; French botanist (1773-1858)"|-10.2251|-17.5034
"Bonpland D"|"Satellite Feature"|"Aimé-Jacques-Alexandre; French botanist (1773-1858)"|-10.162|-18.2775
"Bonpland F"|"Satellite Feature"|"Aimé-Jacques-Alexandre; French botanist (1773-1858)"|-7.343|-19.3733
"Bonpland G"|"Satellite Feature"|"Aimé-Jacques-Alexandre; French botanist (1773-1858)"|-11.6104|-18.8084
"Bonpland H"|"Satellite Feature"|"Aimé-Jacques-Alexandre; French botanist (1773-1858)"|-11.3714|-19.9691
"Bonpland J"|"Satellite Feature"|"Aimé-Jacques-Alexandre; French botanist (1773-1858)"|-11.3876|-20.4026
"Bonpland L"|"Satellite Feature"|"Aimé-Jacques-Alexandre; French botanist (1773-1858)"|-7.5482|-21.2121
"Bonpland N"|"Satellite Feature"|"Aimé-Jacques-Alexandre; French botanist (1773-1858)"|-9.4081|-21.4754
"Bonpland P"|"Satellite Feature"|"Aimé-Jacques-Alexandre; French botanist (1773-1858)"|-10.9294|-21.5578
"Bonpland R"|"Satellite Feature"|"Aimé-Jacques-Alexandre; French botanist (1773-1858)"|-10.7038|-18.6224
"Boole"|"Crater"|"George; British mathematician (1815-1864)"|63.7885|-87.2854
"Boole A"|"Satellite Feature"|"George; British mathematician (1815-1864)"|63.4225|-80.5695
"Boole B"|"Satellite Feature"|"George; British mathematician (1815-1864)"|63.6042|-77.7027
"Boole C"|"Satellite Feature"|"George; British mathematician (1815-1864)"|65.3657|-82.4743
"Boole D"|"Satellite Feature"|"George; British mathematician (1815-1864)"|64.0068|-83.3767
"Boole E"|"Satellite Feature"|"George; British mathematician (1815-1864)"|62.8407|-84.6601
"Boole F"|"Satellite Feature"|"George; British mathematician (1815-1864)"|64.1048|-79.4102
